     3.04           OBSERVATION DATA    M (MIXED)           RINEX VERSION / TYPE
INITIAL_RINEX_VERSION: 3.02                                 COMMENT             
BINEX2RINEX  2.09   GSI_Japan           20210730 00:31:53UTCPGM / RUN BY / DATE 
gfzrnx-1.14-7865    FILE PROCESSING     20210730 122316 UTC COMMENT             
CCJ200JPN                                                   MARKER NAME         
21732M002                                                   MARKER NUMBER       
GSI                 Geospatial Information Authority of JapaOBSERVER / AGENCY   
5035K69995          TRIMBLE NETR9       5.45                REC # / TYPE / VERS 
5015353788          TRM59800.00     SCIS                    ANT # / TYPE        
        0.0000        0.0000        0.0000                  ANTENNA: DELTA H/E/N
 -4490605.4743  3483894.7071  2884928.1885                  APPROX POSITION XYZ 
E    8 C1X C5X D1X D5X L1X L5X S1X S5X                      SYS / # / OBS TYPES 
G   16 C1C C2W C2X C5X D1C D2W D2X D5X L1C L2W L2X L5X S1C  SYS / # / OBS TYPES 
       S2W S2X S5X                                          SYS / # / OBS TYPES 
J   16 C1C C1X C2X C5X D1C D1X D2X D5X L1C L1X L2X L5X S1C  SYS / # / OBS TYPES 
       S1X S2X S5X                                          SYS / # / OBS TYPES 
R   16 C1C C1P C2C C2P D1C D1P D2C D2P L1C L1P L2C L2P S1C  SYS / # / OBS TYPES 
       S1P S2C S2P                                          SYS / # / OBS TYPES 
GEODETIC                                                    MARKER TYPE         
G L1C                                                       SYS / PHASE SHIFT   
G L2X                                                       SYS / PHASE SHIFT   
G L2W                                                       SYS / PHASE SHIFT   
G L5X                                                       SYS / PHASE SHIFT   
R L1C                                                       SYS / PHASE SHIFT   
R L2C                                                       SYS / PHASE SHIFT   
R L1P                                                       SYS / PHASE SHIFT   
R L2P                                                       SYS / PHASE SHIFT   
J L1C                                                       SYS / PHASE SHIFT   
J L1X                                                       SYS / PHASE SHIFT   
J L1Z                                                       SYS / PHASE SHIFT   
J L2X                                                       SYS / PHASE SHIFT   
J L5X                                                       SYS / PHASE SHIFT   
E L1X                                                       SYS / PHASE SHIFT   
E L5X                                                       SYS / PHASE SHIFT   
 23 R01  1 R02 -4 R03  5 R04  6 R05  1 R06 -4 R07  5 R08  6 GLONASS SLOT / FRQ #
    R09 -2 R10 -7 R12 -1 R13 -2 R14 -7 R15  0 R16 -1 R17  4 GLONASS SLOT / FRQ #
    R18 -3 R19  3 R20  2 R21  4 R22 -3 R23  3 R24  2        GLONASS SLOT / FRQ #
                                                            GLONASS COD/PHS/BIS 
    18                                                      LEAP SECONDS        
smtt on  - smooth time tag (ms jumps in phase and range)    COMMENT             
GFZRNX.NUM_EPOCHS: 2880                                     COMMENT
    79                                                      # OF SATELLITES     
   E01   239   239   239   239   239   239   239   239      PRN / # OF OBS      
   E02  1187  1187  1187  1187  1187  1187  1187  1187      PRN / # OF OBS      
   E03   966   966   966   966   965   965   966   966      PRN / # OF OBS      
   E04   996   996   996   996   996   996   996   996      PRN / # OF OBS      
   E05  1180  1180  1180  1180  1179  1179  1180  1180      PRN / # OF OBS      
   E07   454   454   454   454   454   454   454   454      PRN / # OF OBS      
   E08   673   673   673   673   673   673   673   673      PRN / # OF OBS      
   E09  1164  1164  1164  1164  1164  1164  1164  1164      PRN / # OF OBS      
   E11  1090  1090  1090  1090  1089  1089  1090  1090      PRN / # OF OBS      
   E12   953   953   953   953   953   953   953   953      PRN / # OF OBS      
   E13   441   441   441   441   441   441   441   441      PRN / # OF OBS      
   E15   709   707   709   707   708   707   709   707      PRN / # OF OBS      
   E19   693   693   693   693   693   693   693   693      PRN / # OF OBS      
   E21    99    99    99    99    99    99    99    99      PRN / # OF OBS      
   E24  1276  1276  1276  1276  1276  1276  1276  1276      PRN / # OF OBS      
   E25  1082  1082  1082  1082  1081  1081  1082  1082      PRN / # OF OBS      
   E26   274   274   274   274   273   273   274   274      PRN / # OF OBS      
   E27   546   546   546   546   546   546   546   546      PRN / # OF OBS      
   E30  1100  1100  1100  1100  1100  1100  1100  1100      PRN / # OF OBS      
   E31   999   999   999   999   999   999   999   999      PRN / # OF OBS      
   E33   652   652   652   652   651   651   652   652      PRN / # OF OBS      
   E36  1223  1223  1223  1223  1223  1223  1223  1223      PRN / # OF OBS      
   G01   854   853   854   854   854   853   854   854   846PRN / # OF OBS      
         845   846   846   854   853   854   854            PRN / # OF OBS      
   G02   804   794               804   794               790PRN / # OF OBS      
         785               804   794                        PRN / # OF OBS      
   G03   682   682   682   682   682   682   682   682   658PRN / # OF OBS      
         658   658   658   682   682   682   682            PRN / # OF OBS      
   G04   921   911   920   921   921   911   920   921   903PRN / # OF OBS      
         894   902   903   921   911   920   921            PRN / # OF OBS      
   G05   896   895   896         896   895   896         894PRN / # OF OBS      
         893   894         896   895   896                  PRN / # OF OBS      
   G06   902   900   902   902   902   900   902   902   885PRN / # OF OBS      
         884   885   885   902   900   902   902            PRN / # OF OBS      
   G07   937   927   916         937   927   916         923PRN / # OF OBS      
         917   912         937   927   916                  PRN / # OF OBS      
   G08   957   957   957   957   957   957   957   957   953PRN / # OF OBS      
         953   953   953   957   957   957   957            PRN / # OF OBS      
   G09   846   836   846   846   846   836   846   846   809PRN / # OF OBS      
         803   809   809   846   836   846   846            PRN / # OF OBS      
   G10   868   856   868   868   868   856   868   868   852PRN / # OF OBS      
         845   852   852   868   856   868   868            PRN / # OF OBS      
   G12   699   693   682         699   693   682         680PRN / # OF OBS      
         676   669         699   693   682                  PRN / # OF OBS      
   G13   902   873               902   873               891PRN / # OF OBS      
         866               902   873                        PRN / # OF OBS      
   G14   848   821   846   848   848   821   846   848   828PRN / # OF OBS      
         810   827   828   848   821   846   848            PRN / # OF OBS      
   G15   945   943   945         945   943   945         940PRN / # OF OBS      
         940   940         945   943   945                  PRN / # OF OBS      
   G16   949   945               949   945               931PRN / # OF OBS      
         929               949   945                        PRN / # OF OBS      
   G17   799   794   798         799   794   798         785PRN / # OF OBS      
         781   784         799   794   798                  PRN / # OF OBS      
   G18   925   906   922   925   925   906   922   925   917PRN / # OF OBS      
         903   914   917   925   906   922   925            PRN / # OF OBS      
   G19   672   644               672   644               651PRN / # OF OBS      
         634               672   644                        PRN / # OF OBS      
   G20   947   942               947   942               939PRN / # OF OBS      
         936               947   942                        PRN / # OF OBS      
   G21   870   850               870   850               867PRN / # OF OBS      
         848               870   850                        PRN / # OF OBS      
   G22   716   685               716   685               697PRN / # OF OBS      
         679               716   685                        PRN / # OF OBS      
   G23   632   604   628   631   632   604   628   631   614PRN / # OF OBS      
         595   612   614   632   604   628   631            PRN / # OF OBS      
   G24   873   873   873   873   873   873   873   873   859PRN / # OF OBS      
         859   859   859   873   873   873   873            PRN / # OF OBS      
   G25   732   717   731   732   732   717   731   732   721PRN / # OF OBS      
         711   721   721   732   717   731   732            PRN / # OF OBS      
   G26   952   950   952   952   952   950   952   952   947PRN / # OF OBS      
         947   947   947   952   950   952   952            PRN / # OF OBS      
   G27   926   911   926   926   926   911   926   926   922PRN / # OF OBS      
         907   922   922   926   911   926   926            PRN / # OF OBS      
   G29   901   892   897         901   892   897         885PRN / # OF OBS      
         878   882         901   892   897                  PRN / # OF OBS      
   G30   964   946   961   964   964   946   961   964   944PRN / # OF OBS      
         928   941   944   964   946   961   964            PRN / # OF OBS      
   G31   894   893   894         894   893   894         888PRN / # OF OBS      
         887   888         894   893   894                  PRN / # OF OBS      
   G32   764   757   751   763   764   757   751   763   754PRN / # OF OBS      
         747   741   753   764   757   751   763            PRN / # OF OBS      
   J01  2880  2880  2880  2880  2880  2880  2880  2880  2755PRN / # OF OBS      
        2755  2755  2755  2880  2880  2880  2880            PRN / # OF OBS      
   J02  2880  2880  2880  2880  2880  2880  2880  2880  2854PRN / # OF OBS      
        2854  2854  2854  2880  2880  2880  2880            PRN / # OF OBS      
   J03  2880  2880  2880  2880  2880  2880  2880  2880  2867PRN / # OF OBS      
        2867  2867  2867  2880  2880  2880  2880            PRN / # OF OBS      
   J07  2880  2880  2880  2880  2879  2879  2878  2878  2880PRN / # OF OBS      
        2880  2880  2880  2880  2880  2880  2880            PRN / # OF OBS      
   R01   810   810   805   808   810   810   805   808   810PRN / # OF OBS      
         810   805   806   810   810   805   808            PRN / # OF OBS      
   R02   886   886   885   886   886   886   885   886   886PRN / # OF OBS      
         886   885   886   886   886   885   886            PRN / # OF OBS      
   R03   818   818   815   818   818   818   815   818   818PRN / # OF OBS      
         818   815   818   818   818   815   818            PRN / # OF OBS      
   R04   608   606   598   600   608   606   598   600   608PRN / # OF OBS      
         606   598   599   608   606   598   600            PRN / # OF OBS      
   R05   771   770   749   763   771   770   749   763   771PRN / # OF OBS      
         769   749   762   771   770   749   763            PRN / # OF OBS      
   R06   928   923               928   923               928PRN / # OF OBS      
         923               928   923                        PRN / # OF OBS      
   R07   942   940   936   939   942   940   936   939   942PRN / # OF OBS      
         940   935   938   942   940   936   939            PRN / # OF OBS      
   R08   694   690   688   690   694   690   688   690   692PRN / # OF OBS      
         687   686   688   694   690   688   690            PRN / # OF OBS      
   R09   827   827   827   827   827   827   827   827   827PRN / # OF OBS      
         827   827   827   827   827   827   827            PRN / # OF OBS      
   R10   800   790               800   790               800PRN / # OF OBS      
         789               800   790                        PRN / # OF OBS      
   R12   950   949   930   944   950   949   930   944   949PRN / # OF OBS      
         947   929   943   950   949   930   944            PRN / # OF OBS      
   R13   495   492   495   495   495   492   495   495   495PRN / # OF OBS      
         492   494   495   495   492   495   495            PRN / # OF OBS      
   R14   652   652   648   650   652   652   648   650   652PRN / # OF OBS      
         652   648   649   652   652   648   650            PRN / # OF OBS      
   R15   825   825   824   824   825   825   824   824   825PRN / # OF OBS      
         825   824   824   825   825   824   824            PRN / # OF OBS      
   R16   881   881   879   880   881   881   879   880   881PRN / # OF OBS      
         881   879   880   881   881   879   880            PRN / # OF OBS      
   R17   816   816   809   813   816   816   809   813   816PRN / # OF OBS      
         816   809   813   816   816   809   813            PRN / # OF OBS      
   R18   794   790   793   793   794   790   793   793   794PRN / # OF OBS      
         790   792   792   794   790   793   793            PRN / # OF OBS      
   R19   461   460   461   461   461   460   461   461   461PRN / # OF OBS      
         460   461   461   461   460   461   461            PRN / # OF OBS      
   R20   653   645   653   653   653   645   653   653   653PRN / # OF OBS      
         645   653   653   653   645   653   653            PRN / # OF OBS      
   R21  1113  1113  1113  1113  1113  1113  1113  1113  1113PRN / # OF OBS      
        1113  1113  1113  1113  1113  1113  1113            PRN / # OF OBS      
   R22   946   940   714   927   946   940   714   927   944PRN / # OF OBS      
         939   714   924   946   940   714   927            PRN / # OF OBS      
   R23   587   585               587   585               586PRN / # OF OBS      
         584               587   585                        PRN / # OF OBS      
   R24   592   589   569   582   592   589   569   582   592PRN / # OF OBS      
         589   569   582   592   589   569   582            PRN / # OF OBS      
    30.000                                                  INTERVAL            
  2021     7    29     0     0    0.0000000     GPS         TIME OF FIRST OBS   
  2021     7    29    23    59   30.0000000     GPS         TIME OF LAST OBS    
                                                            END OF HEADER      
> 2021 07 29 00 00 00.0000000  0 25
E01  24700777.625    24700783.070       -2117.145       -1580.984   129803476.624 8  96931196.605 8        49.100          51.000
E12  23954242.305    23954244.543        1055.207         787.980   125880401.344 6  94001619.093 7        41.700          43.800
E26  25684649.156    25684656.578       -1900.535       -1419.230   134973719.810 7 100792080.814 7        43.700          44.300
E31  23998554.000    23998560.363         639.344         477.430   126113256.374 8  94175509.372 8        50.100          51.800
E33  24044988.609    24044992.723        -711.141        -531.047   126357261.873 8  94357704.994 8        48.600          51.700
G01  20117250.477    20117258.4384   20117257.895    20117258.070        -834.078        -649.9344       -649.934        -622.852   105716883.900 8  82376818.98849  82376812.982 8  78944446.917 9        49.500          54.2004         49.800          54.700
G03  21328198.688    21328206.1644   21328206.469    21328208.367        2421.961        1887.2424       1887.242        1808.605   112080444.066 7  87335474.60048  87335467.603 7  83696499.343 8        47.300          49.6004         46.900          52.000
G07  23072953.875    23072959.0554   23072958.809                       -2247.367       -1751.1954      -1751.195                   121249222.469 6  94479896.22045  94479970.251 6                        40.300          35.9004         37.400
G08  22205726.375    22205733.6804   22205734.434    22205734.543       -1240.727        -966.8014       -966.801        -926.516   116691828.278 7  90928744.15545  90928744.172 7  87140046.950 8        46.400          33.5004         44.500          50.000
G14  22747511.734    22747517.1024   22747517.352    22747522.359        2961.941        2308.0044       2308.004        2211.840   119539039.465 6  93147278.87144  93147290.854 7  89266158.924 7        41.200          28.7004         42.800          46.800
G17  24364036.250    24364042.5784   24364042.035                        1936.727        1509.1374       1509.137                   128033858.987 5  99766680.38944  99766680.413 5                        33.300          27.4004         35.700
G21  21750551.078    21750555.4224                                      -2033.195       -1584.3094                                  114299899.045 7  89064862.06946                                        47.300          37.9004
G22  20802406.836    20802410.1374                                        589.344         459.2274                                  109317402.622 7  85182425.67646                                        47.900          41.6004
G27  24561884.711    24561893.8874   24561893.625    24561895.762       -2083.504       -1623.5084      -1623.508       -1555.863   129073510.790 5 100576787.47043 100576785.483 6  96386085.564 7        35.900          19.9004         37.700          42.700
G30  23439481.211    23439490.1764   23439489.703    23439490.855        -963.430        -750.7274       -750.727        -719.445   123175334.522 6  95980790.58245  95980789.557 6  91981590.422 7        39.200          34.9004         41.200          45.800
J01  36749456.945    36749457.137    36749461.785    36749467.531         423.746         423.746         330.191         316.434   193119719.109 6 193119733.093 6 150482920.613 6 144212801.399 7        37.600          41.400          38.700          44.200
J02  36575744.195    36575744.094    36575748.949    36575753.141         467.152         467.152         364.012         348.848   192206834.978 7 192206829.983 8 149771662.730 8 143531096.366 8        47.500          51.300          51.000          53.000
J03  39105046.625    39105046.895    39105050.617    39105055.711        -261.297        -261.297        -203.609        -195.125   205498415.595 8 205498417.599 8 160128661.531 8 153456635.602 8        48.900          51.500          50.500          53.000
J07  36825022.242    36825021.680    36825025.719    36825030.844            .871            .871            .680            .652   193516814.456 6 193516805.448 7 150792337.629 8 144509333.856 8        40.200          44.200          48.300          52.500
R05  22150492.672    22150492.020    22150497.516    22150497.203         668.352         668.352         519.828         519.828   118407107.359 7 118407084.369 7  92094411.420 6  92094432.416 6        46.800          45.500          41.800          41.000
R06  22453671.992    22453670.398                                        3441.621        3441.621                                   119817114.162 5 119817318.162 5                                        35.400          34.300
R09  23600974.242    23600973.512    23600980.410    23600979.770       -4400.129       -4400.129       -3422.324       -3422.324   126027872.931 6 126027879.909 6  98021610.570 6  98021644.590 6        39.200          38.200          38.000          37.500
R10  20484727.219    20484726.301                                       -2919.793       -2919.793                                   109195123.581 8 109195118.590 8                                        50.100          48.300
R20  21905910.031    21905909.148    21905915.852    21905915.695       -1865.707       -1865.707       -1451.105       -1451.105   117140725.899 5 117140874.897 5  91109469.993 6  91109465.996 6        33.500          31.800          41.300          41.500
R21  21069770.563    21069770.035    21069774.691    21069774.652         253.258         253.258         196.980         196.980   112748633.810 8 112748619.820 8  87693385.062 7  87693418.067 7        50.700          49.500          46.300          46.000
> 2021 07 29 00 00 30.0000000  0 25
E01  24712891.938    24712897.781       -2126.996       -1588.340   129867139.251 8  96978736.874 8        49.300          50.600
E12  23948234.094    23948237.086        1049.836         783.969   125848827.243 7  93978041.029 7        42.600          44.400
E26  25695494.188    25695502.129       -1898.719       -1417.875   135030711.054 7 100834639.179 7        43.600          44.900
E31  23994942.227    23994948.207         626.102         467.543   126094275.716 8  94161335.496 8        50.300          51.700
E33  24049058.031    24049061.809        -714.348        -533.441   126378646.454 8  94373674.003 8        48.300          52.200
G01  20122046.391    20122054.2544   20122053.645    20122054.102        -845.965        -659.1954       -659.195        -631.727   105742086.906 8  82396457.68949  82396451.692 8  78963267.337 9        50.100          54.3004         50.000          54.800
G03  21314413.664    21314420.8674   21314421.023    21314423.031        2407.668        1876.1054       1876.105        1797.934   112008001.185 7  87279025.61548  87279018.609 7  83642402.397 8        47.300          50.0004         47.200          52.200
G07  23085800.586    23085804.5124   23085805.008                       -2252.812       -1755.4384      -1755.438                   121316727.423 6  94532497.46946  94532571.456 6                        40.900          36.6004         37.200
G08  22212824.078    22212832.5274   22212832.762    22212832.707       -1245.840        -970.7814       -970.781        -930.332   116729128.668 7  90957809.39045  90957809.404 7  87167901.116 8        44.900          33.8004         45.500          49.700
G14  22730627.539    22730632.4574   22730632.480    22730637.469        2953.371        2301.3284       2301.328        2205.438   119450310.254 6  93078139.23244  93078151.215 7  89199900.113 7        41.900          29.2004         42.500          46.400
G17  24352974.164    24352979.7194   24352979.691                        1938.621        1510.6134       1510.613                   127975726.189 5  99721382.14344  99721382.123 6                        34.300          29.6004         36.600
G21  21762165.984    21762170.0084                                      -2035.750       -1586.3014                                  114360934.274 7  89112421.97446                                        47.000          36.7004
G22  20799096.773    20799099.8524                                        570.445         444.5044                                  109300006.994 8  85168870.65446                                        48.700          41.0004
G27  24573787.805    24573797.7814   24573796.832    24573798.363       -2086.555       -1625.8874      -1625.887       -1558.141   129136062.422 5 100625528.93443 100625526.921 6  96432796.147 7        35.500          20.6004         37.000          42.000
G30  23445018.805    23445027.1334   23445026.285    23445028.223        -976.332        -760.7774       -760.777        -729.078   123204431.557 6  96003463.59345  96003462.580 6  92003318.732 7        39.400          35.6004         40.600          46.500
J01  36747039.031    36747040.047    36747044.359    36747049.734         423.293         423.293         329.840         316.094   193107013.846 6 193107027.840 6 150473020.440 6 144203313.699 7        38.400          41.600          39.000          44.300
J02  36573085.766    36573085.539    36573090.090    36573094.289         464.422         464.422         361.887         346.809   192192863.375 7 192192858.380 8 149760775.767 8 143520663.019 8        47.500          51.400          50.700          53.300
J03  39106529.797    39106530.090    39106534.031    39106538.848        -258.188        -258.188        -201.184        -192.801   205506209.600 7 205506211.611 8 160134734.776 8 153462455.804 8        47.900          51.200          50.500          53.400
J07  36825017.461    36825016.945    36825021.133    36825026.234           1.031           1.031            .805            .770   193516789.540 6 193516780.539 7 150792318.225 7 144509315.249 8        39.900          44.200          47.800          52.000
R05  22146804.195    22146804.191    22146809.973    22146809.086         646.008         646.008         502.449         502.449   118387394.528 7 118387371.540 7  92079079.218 6  92079100.209 6        47.200          45.600          41.200          41.500
R06  22434337.531    22434333.926                                        3436.656        3436.656                                   119713939.871 5 119714143.871 5                                        34.200          33.100
R09  23625693.586    23625692.270    23625698.922    23625697.750       -4399.242       -4399.242       -3421.633       -3421.633   126159869.057 6 126159876.062 6  98124274.148 6  98124308.137 5        38.800          38.100          36.000          35.600
R10  20501210.711    20501208.926                                       -2937.742       -2937.742                                   109282989.356 8 109282984.372 7                                        48.800          47.800
R20  21916369.352    21916370.551    21916376.172    21916376.270       -1863.621       -1863.621       -1449.484       -1449.484   117196661.965 5 117196810.995 5  91152975.790 6  91152971.771 6        33.900          32.300          40.400          41.500
R21  21068361.945    21068360.598    21068364.953    21068365.484         249.496         249.496         194.051         194.051   112741094.409 8 112741080.417 8  87687521.088 7  87687554.085 7        49.800          48.600          46.400          45.500
> 2021 07 29 00 01 00.0000000  0 25
E01  24725062.586    24725068.320       -2136.867       -1595.711   129931096.034 8  97026496.785 8        49.100          50.700
E12  23942256.195    23942259.090        1044.305         779.840   125817416.088 7  93954584.681 7        42.100          44.000
E26  25706328.898    25706336.566       -1897.059       -1416.633   135087648.199 7 100877157.138 7        43.300          44.800
E31  23991405.836    23991411.863         612.680         457.520   126075692.753 8  94147458.590 8        50.200          51.200
E33  24053144.773    24053148.816        -717.551        -535.832   126400124.070 8  94389712.481 8        48.500          51.500
G01  20126910.484    20126918.2194   20126918.156    20126917.980        -858.098        -668.6484       -668.648        -640.785   105767647.654 8  82416375.14948  82416369.160 8  78982354.913 9        49.300          53.9004         50.000          54.500
G03  21300709.383    21300717.1804   21300717.234    21300719.301        2393.137        1864.7814       1864.781        1787.082   111935987.208 7  87222910.83548  87222903.831 7  83588625.750 8        47.500          50.0004         47.300          52.200
G07  23098675.844    23098681.8954   23098681.340                       -2258.262       -1759.6884      -1759.688                   121384392.514 6  94585223.47145  94585297.464 6                        41.200          35.6004         38.400
G08  22219950.469    22219959.1764   22219959.176    22219959.848       -1250.984        -974.7934       -974.793        -934.176   116766579.546 7  90986991.85945  90986991.858 7  87195867.656 8        44.300          33.5004         44.900          49.900
G14  22713792.148    22713796.7034   22713796.172    22713801.898        2944.582        2294.4804       2294.480        2198.879   119361837.886 6  93009199.73144  93009211.731 7  89133833.097 7        41.800          29.7004         42.700          47.400
G17  24341897.656    24341903.8674   24341903.695                        1941.137        1512.5744       1512.574                   127917521.944 5  99676028.19144  99676028.180 6                        34.500          29.7004         36.600
G21  21773794.539    21773798.8244                                      -2038.367       -1588.3364                                  114422043.813 7  89160039.78346                                        46.700          37.4004
G22  20795894.086    20795897.2734                                        551.449         429.6994                                  109283177.894 8  85155757.06746                                        48.300          41.4004
G27  24585709.523    24585718.8444   24585718.543    24585718.969       -2089.969       -1628.5474      -1628.547       -1560.691   129198707.989 5 100674343.57443 100674341.558 6  96479576.866 7        35.500          20.4004         38.100          42.600
G30  23450629.414    23450637.1024   23450637.234    23450638.367        -989.387        -770.9494       -770.949        -738.828   123233913.459 6  96026436.49345  96026435.480 6  92025334.407 7        40.200          35.6004         41.100          46.800
J01  36744623.469    36744623.883    36744628.395    36744634.047         422.785         422.785         329.445         315.719   193094319.258 6 193094333.232 6 150463128.539 6 144193833.957 7        39.400          41.800          39.400          44.500
J02  36570442.453    36570442.371    36570447.105    36570451.250         461.523         461.523         359.629         344.645   192178974.064 7 192178969.060 8 149749952.917 8 143510291.122 8        47.600          51.300          49.900          53.200
J03  39107995.188    39107995.449    39107999.574    39108004.434        -255.328        -255.328        -198.957        -190.668   205513911.244 8 205513913.246 8 160140736.057 8 153468207.028 8        48.400          51.200          50.500          53.100
J07  36825012.555    36825011.672    36825015.980    36825021.094            .812            .812            .633            .609   193516763.194 6 193516754.188 7 150792297.683 8 144509295.586 8        39.900          44.400          48.200          52.300
R05  22143242.773    22143242.605    22143247.418    22143247.664         623.371         623.371         484.844         484.844   118368352.018 7 118368329.014 7  92064268.391 6  92064289.374 6        47.100          45.600          41.700          41.400
R06  22415030.156    22415028.492                                        3431.551        3431.551                                   119610916.343 5 119611120.374 5                                        35.400          33.800
R09  23650406.734    23650406.035    23650412.156    23650411.742       -4398.566       -4398.566       -3421.109       -3421.109   126291837.822 6 126291844.816 6  98226916.299 5  98226950.333 5        37.500          36.800          35.100          33.800
R10  20517795.359    20517793.180                                       -2955.773       -2955.773                                   109371391.842 8 109371386.836 7                                        49.100          47.800
R20  21926821.664    21926819.727    21926825.660    21926825.914       -1861.645       -1861.645       -1447.945       -1447.945   117252541.552 5 117252690.573 5  91196437.662 6  91196433.658 6        31.600          31.000          40.900          41.100
R21  21066973.391    21066972.930    21066977.484    21066977.664         245.562         245.562         190.992         190.992   112733667.837 8 112733653.854 8  87681744.871 7  87681777.867 7        50.700          49.200          46.500          46.000
> 2021 07 29 00 01 30.0000000  0 25
E01  24737289.313    24737295.313       -2146.703       -1603.055   129995348.137 8  97074477.224 8        49.600          50.800
E12  23936310.078    23936313.484        1038.816         775.738   125786169.748 7  93931251.378 7        42.000          44.300
E26  25717153.953    25717161.789       -1895.262       -1415.293   135144533.140 7 100919636.105 7        43.300          44.700
E31  23987946.148    23987952.395         599.289         447.523   126057510.750 8  94133881.126 8        50.400          51.800
E33  24057249.750    24057254.328        -720.730        -538.207   126421696.124 8  94405821.459 8        48.200          51.600
G01  20131842.422    20131850.3714   20131850.184    20131850.484        -870.016        -677.9344       -677.934        -649.688   105793566.631 8  82436571.75348  82436565.748 8  79001709.977 9        48.900          53.8004         49.700          54.700
G03  21287087.922    21287095.9734   21287096.148    21287098.195        2378.621        1853.4734       1853.473        1776.242   111864407.269 7  87167134.27648  87167127.271 7  83535173.198 8        47.100          50.0004         47.800          52.400
G07  23111582.703    23111588.3164   23111588.004                       -2263.547       -1763.8054      -1763.805                   121452216.943 6  94638073.64246  94638147.647 6                        40.700          36.0004         38.300
G08  22227106.984    22227114.9574   22227115.109    22227115.539       -1256.137        -978.8054       -978.805        -938.023   116804183.895 7  91016293.93645  91016293.939 7  87223948.788 8        44.500          33.7004         45.100          50.000
G14  22697005.789    22697011.2344   22697010.703    22697016.016        2935.832        2287.6604       2287.660        2192.344   119273627.560 6  92940464.42744  92940476.416 7  89067961.759 7        41.600          28.9004         43.000          47.300
G17  24330809.242    24330814.3634   24330814.395                        1943.453        1514.3794       1514.379                   127859248.384 5  99630620.26644  99630620.259 5                        33.600          28.2004         35.900
G21  21785437.453    21785442.2934                                      -2040.777       -1590.2194                                  114483228.651 7  89207716.25846                                        47.000          37.4004
G22  20792800.266    20792803.3634                                        532.375         414.8404                                  109266918.711 8  85143087.59046                                        48.000          41.7004
G27  24597649.031    24597657.8754   24597657.500    24597658.988       -2093.020       -1630.9264      -1630.926       -1562.969   129261450.433 6 100723233.77643 100723231.807 6  96526429.931 7        36.400          19.6004         37.400          42.800
G30  23456313.086    23456320.4144   23456320.668    23456322.395       -1001.949        -780.7424       -780.742        -748.211   123263780.426 6  96049709.44345  96049708.435 6  92047637.682 7        40.000          34.9004         39.500          47.000
J01  36742210.328    36742210.820    36742215.781    36742221.086         422.473         422.473         329.199         315.484   193081638.184 6 193081652.149 7 150453247.189 6 144184364.342 7        37.900          42.000          39.200          45.400
J02  36567815.734    36567815.590    36567820.125    36567824.391         458.684         458.684         357.418         342.523   192165169.644 8 192165164.643 8 149739196.218 8 143499982.615 8        48.600          51.300          50.000          53.200
J03  39109443.680    39109443.957    39109447.859    39109452.934        -252.223        -252.223        -196.539        -188.348   205521522.912 8 205521524.927 8 160146667.237 8 153473891.075 8        49.000          51.200          50.800          53.000
J07  36825007.055    36825007.059    36825011.238    36825016.457            .719            .719            .562            .539   193516738.022 6 193516729.018 7 150792278.057 8 144509276.776 8        40.000          44.100          48.300          52.300
R05  22139806.422    22139805.246    22139811.891    22139811.547         600.863         600.863         467.340         467.340   118349984.423 7 118349961.428 7  92049982.510 7  92050003.512 6        45.800          45.600          42.000          41.400
R06  22395752.875    22395752.402                                        3426.203        3426.203                                   119508050.411 6 119508254.415 5                                        36.400          35.400
R09  23675115.469    23675114.195    23675120.637    23675119.039       -4397.500       -4397.500       -3420.277       -3420.277   126423777.953 6 126423784.976 6  98329536.393 5  98329570.363 5        38.300          37.800          32.600          33.600
R10  20534479.945    20534478.070                                       -2973.535       -2973.535                                   109460329.913 8 109460324.907 8                                        49.400          48.000
R20  21937259.898    21937259.391    21937265.441    21937265.484       -1859.938       -1859.938       -1446.617       -1446.617   117308366.873 5 117308515.890 5  91239857.321 6  91239853.302 6        33.000          30.800          40.800          39.900
R21  21065607.594    21065606.438    21065610.680    21065611.309         241.793         241.793         188.062         188.062   112726355.332 8 112726341.340 8  87676057.335 7  87676090.354 7        51.000          49.600          46.100          46.200
> 2021 07 29 00 02 00.0000000  0 25
E01  24749571.977    24749577.633       -2156.293       -1610.219   130059892.505 8  97122675.934 8        49.000          50.800
E12  23930395.375    23930398.617        1033.469         771.746   125755085.821 7  93908039.368 7        42.100          44.000
E26  25727968.688    25727976.727       -1893.414       -1413.910   135201363.639 7 100962074.389 7        43.100          44.400
E31  23984562.195    23984568.395         586.090         437.664   126039728.857 8  94120602.437 8        50.300          51.800
E33  24061372.344    24061376.477        -723.613        -540.359   126443359.683 8  94421998.785 8        48.200          52.000
G01  20136842.578    20136850.3054   20136849.641    20136849.922        -881.699        -687.0394       -687.039        -658.410   105819840.174 8  82457044.65149  82457038.647 8  79021329.836 9        48.900          54.0004         50.000          54.600
G03  21273549.914    21273557.5044   21273557.340    21273559.637        2364.289        1842.3014       1842.301        1765.539   111793262.356 7  87111696.69448  87111689.696 7  83482045.534 8        47.100          50.0004         47.800          52.500
G07  23124519.180    23124524.0124   23124523.539                       -2268.578       -1767.7234      -1767.723                   121520195.941 6  94691044.25845  94691118.271 6                        40.600          35.7004         37.900
G08  22234290.820    22234299.3204   22234299.934    22234300.180       -1261.070        -982.6524       -982.652        -941.707   116841940.334 7  91045714.51045  91045714.520 7  87252143.516 8        45.500          33.6004         44.600          49.800
G14  22680269.781    22680275.2664   22680275.148    22680280.637        2927.160        2280.9024       2280.902        2185.867   119185680.229 6  92871934.08144  92871946.070 7  89002286.853 8        40.500          28.0004         42.600          48.000
G17  24319705.352    24319712.0984   24319711.113                        1946.480        1516.7384       1516.738                                                                                          33.100          27.7004         35.200
G21  21797094.484    21797099.0474                                      -2043.043       -1591.9804                                  114544485.313 7  89255448.70546                                        46.500          36.9004
G22  20789814.258    20789817.3134                                        513.500         400.1334                                  109251228.417 8  85130861.39446                                        48.500          41.2004
G27  24609606.250    24609615.8594   24609615.750    24609616.734       -2096.199       -1633.4024      -1633.402       -1565.344   129324288.512 5 100772198.43943 100772196.466 6  96573354.364 7        35.600          19.6004         37.900          42.300
G30  23462068.375    23462076.0394   23462076.199    23462077.797       -1014.500        -790.5204       -790.520        -757.582   123294028.634 6  96073279.43545  96073278.470 6  92070225.623 7        39.700          34.2004         39.900          46.000
J01  36739799.672    36739800.020    36739804.496    36739810.508         422.129         422.129         328.934         315.227   193068969.264 6 193068983.273 7 150443375.329 6 144174903.818 7        38.500          42.100          40.200          44.900
J02  36565204.344    36565204.422    36565209.203    36565213.484         456.000         456.000         355.324         340.520   192151448.565 7 192151443.566 8 149728504.459 8 143489736.349 8        47.300          51.300          50.200          53.200
J03  39110874.625    39110874.984    39110878.852    39110883.918        -249.109        -249.109        -194.113        -186.023   205529042.910 8 205529044.908 8 160152526.970 8 153479506.647 8        48.400          51.500          50.200          52.900
J07  36825002.141    36825002.434    36825006.414    36825011.395            .734            .734            .570            .547   193516712.250 6 193516703.250 7 150792257.984 8 144509257.521 8        40.100          44.200          48.200          52.500
R05  22136497.211    22136497.133    22136502.664    22136502.051         578.453         578.453         449.906         449.906   118332291.749 8 118332268.747 7  92036221.542 7  92036242.552 6        48.000          46.700          42.600          41.700
R06  22376506.031    22376503.570                                        3420.801        3420.801                                   119405344.739 5 119405548.757 5                                        34.400          33.700
R09  23699817.258    23699817.961    23699822.879    23699821.621       -4396.215       -4396.215       -3419.277       -3419.277   126555683.990 6 126555690.994 6  98432129.790 6  98432163.817 5        38.200          36.000          36.200          35.300
R10  20551263.820    20551262.559                                       -2991.020       -2991.020                                   109549797.921 8 109549792.908 8                                        49.600          48.400
R20  21947689.711    21947688.910    21947695.570    21947694.352       -1858.047       -1858.047       -1445.148       -1445.148   117364135.786 5 117364284.800 5  91283233.093 6  91283229.097 6        32.300          31.100          40.500          40.400
R21  21064262.156    21064260.863    21064265.199    21064265.277         238.277         238.277         185.328         185.328   112719153.495 8 112719139.505 8  87670455.923 7  87670488.926 7        50.200          49.100          45.800          45.500
> 2021 07 29 00 02 30.0000000  0 25
E01  24761909.422    24761915.316       -2166.211       -1617.625   130124728.163 8  97171092.159 8        48.900          50.900
E12  23924510.953    23924513.918        1027.750         767.477   125724163.864 7  93884948.310 7        42.400          44.600
E26  25738772.453    25738780.348       -1891.891       -1412.773   135258139.436 7 101004471.876 7        43.300          44.400
E31  23981254.570    23981260.789         572.418         427.453   126022348.173 8  94107623.350 8        49.800          51.900
E33  24065512.031    24065516.086        -726.809        -542.746   126465114.034 8  94438243.925 8        48.500          51.100
G01  20141909.125    20141917.2114   20141916.617    20141916.754        -893.645        -696.3444       -696.344        -667.332   105846466.682 8  82477792.57949  82477786.581 8  79041213.266 9        48.800          54.0004         49.500          54.500
G03  21260094.898    21260102.2074   21260102.570    21260104.613        2349.375        1830.6804       1830.680        1754.402   111722555.531 7  87056600.48848  87056593.476 7  83429245.004 8        47.200          49.8004         47.500          52.700
G07  23137482.977    23137489.0864   23137488.805                       -2273.645       -1771.6684      -1771.668                   121588326.923 6  94744133.31345  94744207.324 6                        39.500          35.2004         37.300
G08  22241505.938    22241513.4804   22241513.938    22241514.371       -1266.430        -986.8284       -986.828        -945.711   116879850.729 7  91075255.06245  91075255.087 7  87280453.226 8        45.000          33.6004         44.400          49.900
G14  22663584.781    22663589.8134   22663589.727    22663595.355        2918.035        2273.7974       2273.797        2179.055   119097998.791 6  92803610.90444  92803622.899 7  88936810.490 8        41.700          29.0004         43.000          48.500
G17  24308590.203    24308595.2194   24308594.605                        1948.152        1518.0434       1518.043                   127742488.323 5  99539638.50044  99539638.499 5                        34.500          29.1004         34.500
G21  21808764.117    21808768.6564                                      -2045.543       -1593.9304                                  114605812.140 7  89303235.81646                                        47.000          36.9004
G22  20786937.313    20786940.2894                                        494.223         385.1094                                  109236108.130 7  85119079.35046                                        47.500          41.6004
G27  24621582.688    24621592.5314   24621591.578    24621593.254       -2099.473       -1635.9534      -1635.953       -1567.789   129387222.932 5 100821238.15843 100821236.200 6  96620350.801 7        34.800          19.6004         38.500          42.400
G30  23467896.820    23467905.1094   23467904.809    23467906.363       -1027.285        -800.4804       -800.480        -767.129   123324656.269 6  96097145.13845  96097144.128 6  92093096.872 7        38.700          34.5004         40.400          46.500
J01  36737391.117    36737391.227    36737396.793    36737402.148         421.406         421.406         328.367         314.688   193056313.363 6 193056327.332 6 150433513.594 6 144165452.979 7        38.700          41.800          39.500          44.500
J02  36562609.664    36562609.563    36562614.074    36562618.285         453.035         453.035         353.016         338.309   192137811.316 7 192137806.327 8 149717878.030 8 143479552.685 8        47.300          51.300          50.600          53.100
J03  39112288.211    39112288.625    39112292.422    39112297.527        -246.348        -246.348        -191.961        -183.961   205536471.346 7 205536473.344 8 160158315.355 8 153485053.850 8        47.900          51.400          50.500          53.100
J07  36824998.297    36824997.250    36825001.531    36825006.539            .723            .723            .562            .539   193516686.227 6 193516677.250 7 150792237.729 8 144509238.109 8        39.800          44.100          48.400          52.300
R05  22133313.688    22133313.008    22133317.945    22133318.781         555.695         555.695         432.207         432.207   118315276.632 7 118315253.642 7  92022987.613 7  92023008.601 6        46.900          45.400          42.100          41.500
R06  22357290.297    22357288.969                                        3415.203        3415.203                                   119302804.046 6 119303008.067 5                                        36.200          34.300
R09  23724512.422    23724511.828    23724517.410    23724516.590       -4395.281       -4395.281       -3418.551       -3418.551   126687552.896 6 126687559.900 6  98534694.230 6  98534728.279 5        39.400          36.700          37.100          35.300
R10  20568145.711    20568144.805                                       -3008.711       -3008.711                                   109639791.538 8 109639786.540 7                                        49.000          47.900
R20  21958108.148    21958106.930    21958113.566    21958112.523       -1856.297       -1856.297       -1443.789       -1443.789   117419847.908 5 117419996.914 4  91326564.717 6  91326560.713 6        30.500          29.300          39.600          39.500
R21  21062935.531    21062934.457    21062939.898    21062939.871         234.438         234.438         182.340         182.340   112712061.305 8 112712047.306 8  87664939.797 7  87664972.786 7        49.400          48.500          44.700          44.600
> 2021 07 29 00 03 00.0000000  0 25
E01  24774302.641    24774308.656       -2175.719       -1624.727   130189853.970 8  97219725.028 8        49.100          50.500
E12  23918657.352    23918660.004        1022.691         763.695   125693403.382 7  93861977.851 7        42.100          44.000
E26  25749566.273    25749573.551       -1889.742       -1411.172   135314860.159 7 101046828.214 7        43.300          43.800
E31  23978023.930    23978029.809         559.195         417.578   126005369.684 8  94094944.605 8        50.700          51.300
E33  24069668.758    24069673.332        -729.672        -544.887   126486958.256 8  94454556.172 8        48.200          51.200
G01  20147042.273    20147051.0044   20147050.352    20147050.480        -905.074        -705.2544       -705.254        -675.867   105873444.308 8  82498814.10049  82498808.088 8  79061358.892 9        48.400          54.0004         49.400          54.700
G03  21246723.414    21246730.7114   21246731.313    21246733.215        2334.695        1819.2424       1819.242        1743.441   111652289.630 7  87001847.84548  87001840.847 7  83376773.727 8        47.200          49.8004         47.300          52.600
G07  23150476.227    23150482.2584   23150482.434                       -2278.559       -1775.5004      -1775.500                   121656606.803 6  94797338.38145  94797412.382 6                        38.800          35.2004         37.800
G08  22248748.789    22248757.7664   22248757.754    22248758.281       -1271.504        -990.7814       -990.781        -949.500   116917915.586 7  91104915.97745  91104915.973 7  87308878.237 8        44.400          33.6004         45.600          50.000
G14  22646950.617    22646955.8984   22646955.855    22646960.793        2909.129        2266.8554       2266.855        2172.402   119010586.209 7  92735497.21444  92735509.195 7  88871534.886 7        42.500          28.2004         42.000          47.500
G17  24297460.727    24297465.5044   24297466.023                        1950.562        1519.9184       1519.918                   127684002.392 5  99494065.09744  99494065.117 5                        34.500          27.3004         34.500
G21  21820447.656    21820451.8524                                      -2047.660       -1595.5824                                  114667207.919 7  89351076.67846                                        46.400          36.8004
G22  20784168.336    20784171.2774                                        475.438         370.4734                                  109221558.444 8  85107741.92746                                        49.100          41.4004
G27  24633576.891    24633587.2774   24633586.152    24633587.117       -2102.699       -1638.4694      -1638.469       -1570.199   129450254.419 6 100870353.52543 100870351.534 6  96667419.673 7        36.000          18.6004         38.100          42.100
G30  23473797.227    23473805.1954   23473804.480    23473806.289       -1039.750        -810.1954       -810.195        -776.438   123355661.180 6  96121304.81845  96121303.846 6  92116249.902 7        38.400          34.8004         40.800          46.200
J01  36734986.078    36734985.477    36734990.734    36734996.520         421.031         421.031         328.074         314.406   193043670.948 6 193043684.952 6 150423662.406 6 144156012.257 7        37.400          41.800          39.500          45.400
J02  36560030.305    36560030.145    36560034.953    36560039.238         450.316         450.316         350.895         336.273   192124258.195 8 192124253.196 8 149707317.147 8 143469431.842 8        48.200          51.200          50.100          53.200
J03  39113684.828    39113684.941    39113689.027    39113693.707        -243.070        -243.070        -189.406        -181.516   205543808.474 7 205543810.479 8 160164032.596 8 153490532.878 8        47.700          51.400          50.300          53.700
J07  36824992.672    36824992.254    36824996.379    36825001.676            .844            .844            .656            .629   193516660.212 6 193516651.205 7 150792217.437 8 144509218.668 8        40.200          44.100          48.200          52.100
R05  22130258.086    22130257.563    22130263.566    22130262.477         533.121         533.121         414.652         414.652   118298941.189 7 118298918.194 7  92010282.273 7  92010303.265 6        47.900          46.100          42.400          41.600
R06  22338106.422    22338104.832                                        3409.328        3409.328                                   119200433.426 5 119200637.424 5                                        35.200          35.200
R09  23749198.547    23749198.578    23749203.586    23749203.395       -4393.656       -4393.656       -3417.285       -3417.285   126819380.834 6 126819387.817 6  98637226.975 5  98637260.987 5        38.500          36.900          33.700          33.300
R10  20585126.461    20585124.840                                       -3025.910       -3025.910                                   109730307.187 8 109730302.181 7                                        48.600          47.800
R20  21968517.680    21968515.129    21968520.559    21968520.254       -1854.223       -1854.223       -1442.172       -1442.172   117475503.196 5 117475652.196 5  91369852.063 6  91369848.067 6        32.300          31.600          39.200          38.900
R21  21061630.766    21061629.930    21061634.273    21061634.754         230.988         230.988         179.656         179.656   112705077.506 8 112705063.515 8  87659507.919 7  87659540.930 7        50.000          49.100          45.800          45.000
> 2021 07 29 00 03 30.0000000  0 25
E01  24786750.547    24786756.773       -2185.387       -1631.945   130255268.787 8  97268573.740 8        48.900          50.400
E12  23912834.617    23912837.348        1017.227         759.617   125662803.980 7  93839127.677 7        42.100          44.500
E26  25760349.539    25760357.465       -1887.934       -1409.820   135371525.562 7 101089143.248 7        42.700          44.500
E31  23974869.797    23974876.074         545.703         407.504   125988794.408 8  94082566.946 8        50.700          51.300
E33  24073842.688    24073847.207        -732.668        -547.121   126508891.371 8  94470934.781 8        48.700          51.300
G01  20152242.820    20152250.7774   20152250.500    20152250.547        -916.809        -714.3954       -714.395        -684.629   105900771.327 8  82520107.88848  82520101.884 8  79081765.442 9        48.800          53.7004         49.700          54.600
G03  21233436.906    21233444.1024   21233444.813    21233446.586        2319.863        1807.6844       1807.684        1732.363   111582467.534 8  86947441.03648  86947434.026 7  83324633.876 8        48.100          50.1004         47.400          52.800
G07  23163498.414    23163503.3284   23163503.480                       -2283.211       -1779.1254      -1779.125                   121725032.771 6  94850657.28545  94850731.313 6                        38.800          34.6004         37.700
G08  22256022.719    22256030.4454   22256030.746    22256030.965       -1276.723        -994.8524       -994.852        -953.398   116956135.662 7  91134697.83845  91134697.818 7  87337419.188 8        44.100          33.6004         45.600          50.100
G14  22630368.195    22630373.6564   22630373.121    22630378.375        2900.055        2259.7814       2259.781        2165.625   118923445.474 6  92667595.33644  92667607.327 7  88806462.240 8        41.700          28.9004         42.900          48.000
G17  24286317.359    24286323.1484   24286323.438                        1952.957        1521.7854       1521.785                   127625445.262 5  99448436.20244  99448436.235 5                        34.700          28.1004         35.900
G21  21832143.398    21832148.0704                                      -2049.965       -1597.3754                                  114728670.994 7  89398969.95546                                        46.400          36.3004
G22  20781508.156    20781511.2774                                        456.383         355.6214                                  109207579.738 8  85096849.43246                                        48.700          41.2004
G27  24645589.867    24645599.5354   24645599.809    24645599.902       -2105.820       -1640.8984      -1640.898       -1572.527   129513383.520 5 100919544.97643 100919543.013 6  96714561.477 6        34.300          19.0004         37.800          41.200
G30  23479768.383    23479775.8554   23479776.688    23479777.566       -1052.277        -819.9574       -819.957        -785.789   123387041.452 6  96145756.96645  96145755.967 6  92139683.210 7        38.600          35.2004         39.500          45.800
J01  36732582.313    36732582.566    36732587.336    36732593.781         420.551         420.551         327.703         314.047   193031042.717 6 193031056.732 6 150413822.243 6 144146582.103 7        37.700          41.600          39.500          45.300
J02  36557467.109    36557467.371    36557472.145    36557476.227         447.477         447.477         348.680         334.152   192110789.627 8 192110784.623 8 149696822.149 8 143459374.129 8        48.800          51.400          50.800          53.200
J03  39115063.727    39115063.766    39115067.621    39115072.652        -240.148        -240.148        -187.129        -179.332   205551054.382 7 205551056.392 8 160169678.759 8 153495943.779 8        47.200          51.500          50.500          53.400
J07  36824987.945    36824987.336    36824991.449    36824996.625            .809            .809            .633            .605   193516634.430 6 193516625.428 7 150792197.349 8 144509199.417 8        40.200          44.300          48.400          52.400
R05  22127328.859    22127328.508    22127333.871    22127334.430         510.273         510.273         396.879         396.879   118283287.446 7 118283264.434 7  91998107.122 6  91998128.129 6        46.600          45.500          41.300          41.400
R06  22318954.805    22318952.961                                        3403.430        3403.430                                   119098237.686 5 119098441.692 5                                        34.900          34.500
R09  23773877.828    23773877.168    23773884.777    23773882.320       -4392.168       -4392.168       -3416.133       -3416.133   126951164.521 6 126951171.485 5  98739725.257 5  98739759.303 5        36.900          35.400          35.100          34.500
R10  20602204.820    20602202.805                                       -3043.133       -3043.133                                   109821340.930 8 109821335.938 7                                        49.600          47.900
R20  21978914.703    21978912.398    21978918.945    21978918.488       -1852.492       -1852.492       -1440.828       -1440.828   117531101.195 5 117531250.207 5  91413094.951 6  91413090.940 6        32.200          31.000          40.400          40.200
R21  21060346.305    21060345.863    21060349.285    21060349.715         227.324         227.324         176.805         176.805   112698201.015 8 112698187.016 8  87654159.533 7  87654192.543 7        51.700          49.300          45.600          44.700
> 2021 07 29 00 04 00.0000000  0 25
E01  24799253.289    24799259.281       -2195.035       -1639.148   130320970.643 8  97317636.796 8        48.700          50.400
E12  23907042.156    23907044.820        1011.832         755.590   125632364.246 7  93816396.705 7        42.600          44.700
E26  25771121.727    25771130.168       -1886.230       -1408.547   135428134.442 7 101131416.083 7        42.000          44.400
E31  23971792.297    23971798.738         532.199         397.422   125972622.375 8  94070490.433 8        50.400          51.900
E33  24078033.016    24078037.473        -735.645        -549.344   126530911.654 8  94487378.499 8        48.300          52.100
G01  20157509.180    20157516.7504   20157516.180    20157516.895        -928.379        -723.4104       -723.410        -693.270   105928445.047 8  82541671.82748  82541665.830 8  79102430.887 9        48.200          53.5004         49.200          54.600
G03  21220234.844    21220242.7664   21220242.961    21220244.699        2304.898        1796.0234       1796.023        1721.191   111513091.270 7  86893381.63448  86893374.631 7  83272826.952 8        47.500          50.4004         47.800          52.500
G07  23176545.930    23176551.2704   23176551.039                       -2288.141       -1782.9654      -1782.965                   121793601.301 6  94904087.27345  94904161.306 6                        38.600          34.9004         37.300
G08  22263325.391    22263333.5084   22263333.742    22263333.922       -1281.977        -998.9414       -998.941        -957.320   116994511.408 7  91164600.97545  91164600.985 7  87366076.359 8        44.900          33.5004         45.100          50.200
G14  22613838.117    22613843.0234   22613842.984    22613848.152        2890.738        2252.5234       2252.523        2158.668   118836578.402 6  92599906.71944  92599918.730 6  88741594.002 7        40.400          28.1004         41.700          47.800
G17  24275161.148    24275167.0514   24275166.465                        1955.449        1523.7274       1523.727                   127566816.590 6  99402751.55545  99402751.534 6                        36.900          31.8004         37.100
G21  21843851.859    21843856.5044                                      -2052.176       -1599.0984                                  114790198.612 7  89446913.52546                                        46.300          36.4004
G22  20778956.766    20778959.9024                                        437.184         340.6604                                  109194172.302 8  85086402.08047                                        49.500          42.1004
G27  24657621.648    24657631.6604   24657631.250    24657631.656       -2109.371       -1643.6644      -1643.664       -1575.180   129576610.151 5 100968812.40343 100968810.382 6  96761776.063 6        34.200          19.0004         39.200          41.300
G30  23485810.953    23485818.5354   23485818.871    23485819.613       -1064.734        -829.6644       -829.664        -795.094   123418794.218 6  96170499.37145  96170498.392 6  92163394.667 7        39.500          35.3004         41.000          45.500
J01  36730181.695    36730182.176    36730186.613    36730193.250         420.207         420.207         327.434         313.789   193018428.351 6 193018442.364 6 150403992.846 6 144137162.294 7        38.400          41.700          40.000          45.300
J02  36554920.188    36554920.344    36554925.234    36554929.379         444.582         444.582         346.426         331.992   192097405.041 8 192097400.029 8 149686392.599 8 143449379.136 8        48.300          51.300          50.800          53.000
J03  39116424.586    39116424.918    39116429.027    39116433.961        -237.074        -237.074        -184.734        -177.035   205558208.353 7 205558210.354 8 160175253.263 8 153501286.020 8        47.300          51.300          50.500          53.200
J07  36824983.078    36824982.500    36824986.402    36824991.516            .590            .590            .461            .441   193516608.227 6 193516599.198 7 150792176.910 8 144509179.832 8        40.100          44.100          48.100          52.100
R05  22124528.602    22124527.844    22124534.039    22124533.031         487.438         487.438         379.121         379.121   118268316.847 7 118268293.856 7  91986463.382 6  91986484.376 6        46.700          45.800          41.700          41.500
R06  22299837.172    22299834.344                                        3397.387        3397.387                                   118996220.034 6 118996423.996 5                                        36.600          34.100
R09  23798547.625    23798545.320    23798554.227    23798552.512       -4390.465       -4390.465       -3414.809       -3414.809   127082899.702 5 127082906.718 5  98842185.787 5  98842219.780 5        33.400          33.000          35.400          34.800
R10  20619379.047    20619376.820                                       -3060.293       -3060.293                                   109912887.678 8 109912882.687 7                                        49.300          47.900
R20  21989299.313    21989298.363    21989306.102    21989304.750       -1850.613       -1850.613       -1439.367       -1439.367   117586640.996 5 117586789.953 5  91456292.494 6  91456288.525 6        31.900          30.300          41.200          41.000
R21  21059081.508    21059079.840    21059084.098    21059084.383         223.773         223.773         174.043         174.043   112691429.708 8 112691415.702 8  87648892.954 7  87648925.967 7        51.000          49.300          45.500          44.600
> 2021 07 29 00 04 30.0000000  0 25
E01  24811810.297    24811816.211       -2204.391       -1646.137   130386958.686 8  97366913.567 8        49.400          50.300
E12  23901279.906    23901282.832        1006.656         751.723   125602083.979 7  93793784.819 7        42.500          44.000
E26  25781882.945    25781890.586       -1884.219       -1407.047   135484686.743 6 101173646.637 7        41.800          43.800
E31  23968791.719    23968798.238         518.832         387.441   125956854.944 8  94058716.049 8        50.900          51.700
E33  24082239.836    24082244.008        -738.383        -551.391   126553018.567 8  94503886.897 8        48.400          51.300
G01  20162840.852    20162848.8594   20162848.520    20162848.895        -939.711        -732.2424       -732.242        -701.734   105956464.092 8  82563504.85048  82563498.854 8  79123354.199 9        48.500          53.8004         49.900          54.800
G03  21207118.617    21207126.2584   21207126.387    21207128.250        2290.023        1784.4344       1784.434        1710.082   111444163.969 7  86839672.06148  86839665.057 7  83221355.286 8        47.600          50.6004         47.300          52.500
G07  23189620.414    23189626.2274   23189625.590                       -2292.676       -1786.5004      -1786.500                   121862309.841 6  94957626.33745  94957700.370 6                        38.800          35.3004         36.400
G08  22270658.031    22270665.7344   22270666.008    22270666.367       -1287.070       -1002.9104      -1002.910        -961.125   117033043.826 7  91194626.19745  91194626.213 7  87394850.529 8        44.400          33.4004         44.800          50.500
G14  22597360.492    22597365.6174   22597365.324    22597370.836        2881.605        2245.4064       2245.406        2151.848   118749988.439 6  92532434.03344  92532446.039 6  88676932.682 7        40.600          27.7004         41.700          47.000
G17  24263990.875    24263996.5514   24263996.121                        1957.730        1525.5044       1525.504                   127508116.704 6  99357011.35644  99357011.324 5                        36.100          29.9004         35.900
G21  21855572.625    21855576.8834                                      -2054.172       -1600.6524                                  114851790.130 7  89494906.89346                                        46.500          36.4004
G22  20776514.188    20776517.6724                                        418.250         325.9104                                  109181337.439 8  85076400.89247                                        49.100          42.0004
G27  24669671.930    24669682.4924   24669682.063    24669681.727       -2112.383       -1646.0124      -1646.012       -1577.430   129639935.108 5 101018156.46743 101018154.466 6  96809064.122 6        34.600          20.1004         38.600          41.700
G30  23491924.016    23491931.9344   23491931.770    23491932.848       -1076.938        -839.1724       -839.172        -804.207   123450917.724 6  96195530.69045  96195529.666 6  92187383.018 7        39.400          35.7004         41.400          46.200
J01  36727784.234    36727784.395    36727789.297    36727794.555         419.566         419.566         326.934         313.312   193005828.842 6 193005842.813 6 150394175.038 6 144127753.561 7        38.200          41.600          39.800          44.500
J02  36552389.563    36552389.324    36552394.203    36552398.426         441.852         441.852         344.301         329.953   192084105.126 8 192084100.122 8 149676029.019 8 143439447.379 8        48.200          51.100          50.500          53.000
J03  39117768.953    39117768.902    39117772.969    39117778.000        -233.906        -233.906        -182.266        -174.672   205565270.888 8 205565272.896 8 160180756.546 8 153506559.989 8        48.200          51.500          50.500          53.100
J07  36824977.922    36824977.410    36824981.484    36824986.504            .719            .719            .559            .535   193516582.149 6 193516573.162 7 150792156.604 8 144509160.361 8        40.500          44.000          48.400          52.300
R05  22121855.453    22121856.074    22121861.492    22121860.730         464.727         464.727         361.453         361.453   118254031.488 7 118254008.492 7  91975352.569 6  91975373.579 6        46.300          45.500          41.800          41.500
R06  22280752.406    22280750.816                                        3391.273        3391.273                                   118894386.351 6 118894590.345 5                                        36.100          34.400
R09  23823208.297    23823207.805    23823214.133    23823212.953       -4388.770       -4388.770       -3413.488       -3413.488   127214583.042 6 127214590.032 5  98944605.946 6  98944639.950 6        37.900          35.900          36.400          36.700
R10  20636648.023    20636646.656                                       -3077.133       -3077.133                                   110004944.604 8 110004939.597 8                                        49.300          48.400
R20  21999674.086    21999673.688    21999681.598    21999679.988       -1848.352       -1848.352       -1437.605       -1437.605   117642122.359 5 117642271.386 5  91499444.659 6  91499440.648 6        31.600          30.100          41.000          40.500
R21  21057835.266    21057834.332    21057838.070    21057838.184         220.480         220.480         171.484         171.484   112684762.800 8 112684748.808 8  87643707.591 7  87643740.595 7        49.900          48.900          45.100          44.400
> 2021 07 29 00 05 00.0000000  0 25
E01  24824421.664    24824427.418       -2213.969       -1653.289   130453230.751 8  97416402.440 8        49.300          50.300
E12  23895548.086    23895550.543        1001.336         747.754   125571961.666 7  93771290.918 7        42.900          44.700
E26  25792633.617    25792641.781       -1882.426       -1405.707   135541181.202 6 101215834.028 7        41.300          44.400
E31  23965868.508    23965874.406         505.137         377.211   125941491.981 8  94047243.692 8        51.200          51.700
E33  24086462.797    24086467.156        -741.281        -553.551   126575210.155 8  94520458.526 8        48.400          51.500
G01  20168238.172    20168245.7854   20168245.266    20168245.855        -951.289        -741.2664       -741.266        -710.379   105984825.587 8  82585604.71149  82585598.714 8  79144533.225 9        49.300          54.1004         49.100          54.700
G03  21194087.875    21194095.7854   21194095.781    21194097.520        2274.898        1772.6484       1772.648        1698.785   111375687.442 8  86786313.74748  86786306.742 8  83170220.231 8        48.300          50.8004         48.100          52.700
G07  23202721.172    23202727.4574   23202726.523                       -2297.258       -1790.0704      -1790.070                   121931154.458 6  95011271.46045  95011345.502 6                        39.000          35.0004         38.300
G08  22278019.930    22278028.4304   22278028.230    22278028.832       -1292.488       -1007.1374      -1007.137        -965.172   117071733.227 7  91224773.76345  91224773.766 7  87423741.930 8        43.700          32.8004         45.700          49.900
G14  22580935.742    22580941.4884   22580940.707    22580946.445        2872.184        2238.0624       2238.062        2144.812   118663677.338 6  92465178.63644  92465190.631 7  88612479.586 7        41.100          28.0004         42.600          47.200
G17  24252806.266    24252811.8244   24252811.965                        1960.145        1527.3874       1527.387                   127449344.586 6  99311214.92144  99311214.892 5                        37.900          29.6004         34.900
G21  21867304.609    21867308.9924                                      -2056.309       -1602.3204                                  114913443.020 7  89542948.08146                                        46.600          36.7004
G22  20774180.633    20774184.2234                                        399.000         310.9104                                  109169074.790 7  85066845.58446                                        47.500          41.7004
G27  24681741.063    24681750.7544   24681750.633    24681751.223       -2115.777       -1648.6564      -1648.656       -1579.965   129703358.154 5 101067576.94743 101067574.949 6  96856425.390 6        35.400          20.1004         37.300          41.400
G30  23498105.953    23498114.6524   23498115.047    23498115.973       -1089.242        -848.7624       -848.762        -813.395   123483408.884 6  96220848.45845  96220847.452 6  92211645.844 7        38.600          35.0004         40.900          46.500
J01  36725389.383    36725389.605    36725393.887    36725400.035         419.047         419.047         326.531         312.926   192993243.664 6 192993257.657 6 150384368.456 6 144118355.569 7        39.200          41.500          39.500          45.100
J02  36549874.570    36549874.527    36549879.242    36549883.512         438.980         438.980         342.062         327.809   192070889.206 7 192070884.209 8 149665730.897 8 143429578.347 8        47.500          51.100          50.200          53.000
J03  39119095.180    39119095.227    39119099.293    39119104.293        -231.027        -231.027        -180.020        -172.520   205572241.110 7 205572243.101 8 160186187.882 8 153511765.010 8        47.000          51.400          50.200          53.000
J07  36824972.547    36824972.441    36824976.535    36824981.633            .664            .664            .516            .496   193516555.435 6 193516546.430 7 150792135.781 8 144509140.405 8        40.200          44.200          48.200          52.200
R05  22119312.547    22119312.078    22119317.852    22119316.879         441.695         441.695         343.543         343.543   118240432.533 7 118240409.529 7  91964775.627 6  91964796.635 6        46.300          45.000          40.700          41.200
R06  22261703.961    22261702.828                                        3384.836        3384.836                                   118792740.207 6 118792944.213 5                                        36.700          34.900
R09  23847858.031    23847857.676    23847863.371    23847862.793       -4386.773       -4386.773       -3411.938       -3411.938   127346210.354 6 127346217.367 6  99046982.537 6  99047016.553 6        39.600          37.200          37.900          36.000
R10  20654012.367    20654010.840                                       -3093.914       -3093.914                                   110097506.180 8 110097501.189 7                                        49.400          47.600
R20  22010038.742    22010038.227    22010044.652    22010043.941       -1846.652       -1846.652       -1436.285       -1436.285   117697543.957 5 117697692.952 5  91542550.278 6  91542546.273 6        32.500          31.000          40.800          41.000
R21  21056608.406    21056606.879    21056610.676    21056611.773         216.984         216.984         168.766         168.766   112678197.851 8 112678183.852 8  87638601.521 7  87638634.533 7        49.900          48.500          45.700          45.100
> 2021 07 29 00 05 30.0000000  0 25
E01  24837086.742    24837092.652       -2223.281       -1660.242   130519786.271 8  97466102.972 8        48.600          50.300
E12  23889845.688    23889848.809         996.086         743.832   125541997.415 7  93748915.023 7        42.200          44.600
E26  25803373.563    25803381.246       -1880.324       -1404.137   135597618.097 7 101257978.409 7        42.100          45.200
E31  23963022.063    23963028.445         491.711         367.188   125926535.052 8  94036074.554 8        50.300          51.600
E33  24090701.695    24090706.066        -743.973        -555.562   126597486.160 8  94537093.189 8        48.400          51.500
G01  20173700.008    20173707.8984   20173707.434    20173707.480        -962.438        -749.9534       -749.953        -718.703   106013528.324 8  82607970.47948  82607964.481 8  79165967.094 9        48.800          53.9004         49.300          54.400
G03  21181143.500    21181151.2814   21181151.254    21181153.281        2259.672        1760.7814       1760.781        1687.418   111307665.163 7  86733309.38348  86733302.372 7  83119424.376 8        47.500          50.6004         47.600          53.200
G07  23215847.859    23215853.1564   23215853.125                       -2301.500       -1793.3754      -1793.375                   122000132.822 6  95065020.81645  95065094.832 6                        38.900          34.8004         37.600
G08  22285411.945    22285420.6564   22285420.969    22285421.133       -1297.605       -1011.1214      -1011.121        -968.988   117110580.551 7  91255044.35145  91255044.383 7  87452751.253 8        44.400          32.8004         45.400          50.000
G14  22564565.172    22564570.6524   22564570.051    22564575.582        2862.758        2230.7194       2230.719        2137.773   118577648.700 6  92398143.33344  92398155.329 7  88548237.422 7        41.400          28.7004         42.800          47.800
G17  24241608.719    24241614.5784   24241614.711                        1962.543        1529.2544       1529.254                   127390501.105 6  99265362.87445  99265362.848 5                        38.100          31.2004         35.800
G21  21879048.359    21879052.6644                                      -2058.191       -1603.7854                                  114975156.228 7  89591036.28546                                        46.500          36.6004
G22  20771956.688    20771959.5514                                        380.031         296.1294                                  109157385.334 8  85057736.91246                                        48.500          41.3004
G27  24693829.023    24693839.0744   24693838.480    24693839.684       -2119.332       -1651.4304      -1651.430       -1582.617   129766880.486 5 101117074.80843 101117072.812 6  96903860.797 6        35.900          19.9004         37.500          41.800
G30  23504359.250    23504366.8404   23504367.055    23504368.520       -1101.422        -858.2504       -858.250        -822.492   123516266.158 6  96246451.55245  96246450.543 6  92236182.149 7        38.500          34.2004         40.400          46.800
J01  36722997.164    36722997.922    36723002.367    36723007.969         418.672         418.672         326.238         312.645   192980674.166 6 192980688.160 6 150374574.046 6 144108969.256 7        38.600          41.700          39.000          45.000
J02  36547375.773    36547375.922    36547380.621    36547384.688         436.215         436.215         339.906         325.746   192057758.227 8 192057753.229 8 149655498.956 8 143419772.738 8        48.000          51.100          50.200          53.300
J03  39120404.281    39120404.480    39120408.418    39120413.180        -227.898        -227.898        -177.582        -170.184   205579119.756 7 205579121.753 8 160191547.866 8 153516901.662 8        47.700          51.500          50.700          52.900
J07  36824967.797    36824966.957    36824971.563    36824976.551            .770            .770            .602            .574   193516528.902 6 193516519.923 7 150792115.123 8 144509120.604 8        40.400          44.300          48.100          52.100
R05  22116896.836    22116896.168    22116902.422    22116901.633         418.770         418.770         325.711         325.711   118227522.393 7 118227499.395 7  91954734.484 6  91954755.467 6        46.500          45.500          41.700          40.800
R06  22242691.945    22242690.051                                        3378.332        3378.332                                   118691286.329 6 118691490.330 5                                        36.300          35.100
R09  23872496.852    23872496.035    23872502.305    23872502.000       -4384.734       -4384.734       -3410.348       -3410.348   127477778.443 6 127477785.496 6  99149313.111 6  99149347.104 6        39.000          37.300          37.300          36.200
R10  20671471.305    20671469.148                                       -3110.566       -3110.566                                   110190569.624 8 110190564.633 7                                        48.800          47.800
R20  22020391.438    22020390.000    22020396.984    22020396.527       -1844.660       -1844.660       -1434.738       -1434.738   117752906.401 5 117753055.356 4  91585609.915 6  91585605.935 6        30.800          29.500          40.200          40.200
R21  21055400.445    21055399.555    21055402.980    21055403.574         213.707         213.707         166.219         166.219   112671734.602 8 112671720.609 8  87633574.563 7  87633607.552 7        51.100          49.600          44.900          45.100
> 2021 07 29 00 06 00.0000000  0 25
E01  24849805.344    24849811.090       -2232.523       -1667.145   130586623.109 8  97516013.562 8        48.400          49.600
E12  23884173.875    23884176.531         991.016         740.043   125512189.723 7  93726656.039 7        42.700          44.300
E26  25814102.109    25814110.230       -1878.199       -1402.551   135653996.123 7 101300078.854 7        42.800          44.800
E31  23960252.961    23960259.344         478.301         357.172   125911984.048 8  94025208.541 8        50.600          51.500
E33  24094956.445    24094960.527        -746.656        -557.566   126619844.712 8  94553789.517 8        48.500          51.500
G01  20179226.234    20179234.4344   20179233.832    20179233.820        -973.645        -758.6844       -758.684        -727.070   106042569.605 8  82630600.03648  82630594.039 8  79187653.759 9        48.700          53.9004         49.400          54.400
G03  21168285.688    21168293.8164   21168293.754    21168295.891        2244.586        1749.0274       1749.027        1676.152   111240098.864 8  86680660.33548  86680653.338 7  83068969.049 8        48.000          50.7004         47.400          52.900
G07  23228998.977    23229004.0354   23229003.953                       -2305.621       -1796.5864      -1796.586                   122069241.418 6  95118871.62745  95118945.629 6                        39.500          34.7004         37.500
G08  22292834.563    22292843.3204   22292843.406    22292843.754       -1302.848       -1015.2074      -1015.207        -972.906   117149586.084 7  91285438.25045  91285438.251 7  87481878.719 8        44.200          32.6004         45.400          50.200
G14  22548248.234    22548253.6294   22548253.746    22548258.867        2853.348        2223.3914       2223.391        2130.746   118491904.415 6  92331329.59944  92331341.600 7  88484207.600 7        41.000          28.9004         42.200          47.400
G17  24230396.953    24230403.3054   24230402.555                        1965.141        1531.2774       1531.277                   127331584.907 6  99219454.15944  99219454.212 5                        36.200          28.5004         34.900
G21  21890803.180    21890807.6054                                      -2059.945       -1605.1524                                  115036927.310 7  89639169.57846                                        46.300          36.2004
G22  20769841.305    20769844.2624                                        361.051         281.3364                                  109146268.789 7  85049074.67746                                        47.600          41.7004
G27  24705935.211    24705945.9574   24705945.602    24705946.813       -2122.523       -1653.9144      -1653.914       -1585.004   129830501.733 5 101166649.75443 101166647.720 6  96951370.112 7        34.700          19.0004         37.900          42.000
G30  23510680.531    23510688.8204   23510688.563    23510689.992       -1113.336        -867.5354       -867.535        -831.387   123549486.577 6  96272337.58245  96272336.584 6  92260989.615 7        39.400          34.5004         40.000          46.600
J01  36720608.727    36720608.855    36720613.426    36720618.973         418.082         418.082         325.777         312.203   192968119.924 6 192968133.899 6 150364791.492 6 144099594.334 7        38.400          41.900          39.300          45.000
J02  36544893.219    36544893.039    36544897.836    36544902.117         433.457         433.457         337.758         323.684   192044711.587 8 192044706.586 8 149645332.736 8 143410030.111 8        48.000          51.000          50.500          53.200
J03  39121695.641    39121695.891    39121699.879    39121704.656        -224.699        -224.699        -175.090        -167.793   205585905.974 8 205585907.969 8 160196835.821 8 153521969.291 8        48.300          51.600          50.500          53.400
J07  36824962.516    36824962.168    36824966.234    36824971.426            .977            .977            .762            .730   193516501.753 6 193516492.804 7 150792093.984 8 144509100.361 8        39.900          44.300          48.500          52.500
R05  22114611.688    22114611.094    22114616.727    22114615.988         395.844         395.844         307.879         307.879   118215302.163 7 118215279.159 7  91945229.868 7  91945250.870 6        47.100          46.500          42.300          41.300
R06  22223718.070    22223714.688                                        3371.902        3371.902                                   118590028.954 5 118590232.960 5                                        35.800          35.000
R09  23897124.305    23897123.297    23897129.656    23897128.891       -4382.453       -4382.453       -3408.574       -3408.574   127609283.445 6 127609290.446 6  99251594.576 5  99251628.599 5        39.300          36.800          35.700          35.400
R10  20689022.156    20689020.789                                       -3126.855       -3126.855                                   110284129.005 8 110284124.014 7                                        49.300          47.900
R20  22030733.906    22030732.574    22030740.289    22030738.949       -1842.316       -1842.316       -1432.910       -1432.910   117808208.538 5 117808357.567 5  91628622.656 6  91628618.657 6        32.900          31.200          40.400          40.100
R21  21054210.703    21054210.012    21054214.289    21054214.676         210.512         210.512         163.730         163.730   112665370.753 8 112665356.768 8  87628624.886 7  87628657.890 7        51.000          49.300          45.900          44.700
> 2021 07 29 00 06 30.0000000  0 25
E01  24862577.359    24862583.020       -2241.898       -1674.145   130653740.024 8  97566133.320 8        49.400          50.300
E12  23878531.258    23878534.109         985.762         736.121   125482538.079 7  93704513.605 7        42.600          45.200
E26  25824818.969    25824827.031       -1876.332       -1401.160   135710315.114 7 101342135.167 7        42.800          44.600
E31  23957561.563    23957567.570         464.676         347.000   125897839.872 8  94014646.320 8        50.100          51.700
E33  24099226.641    24099230.805        -749.391        -559.609   126642284.867 8  94570546.775 8        48.400          51.600
G01  20184816.336    20184824.5204   20184824.094    20184824.496        -984.902        -767.4574       -767.457        -735.480   106071947.617 8  82653491.99348  82653485.996 8  79209591.880 9        48.500          53.6004         49.100          54.600
G03  21155515.719    21155523.6024   21155523.730    21155525.629        2229.207        1737.0474       1737.047        1664.668   111172991.322 7  86628368.76848  86628361.764 8  83018856.298 8        47.500          50.7004         48.300          52.600
G07  23242173.867    23242179.9264   23242179.688                       -2309.863       -1799.8954      -1799.895                   122138477.244 6  95172821.59945  95172895.612 6                        39.400          34.8004         38.300
G08  22300287.617    22300296.1484   22300296.281    22300296.762       -1308.137       -1019.3284      -1019.328        -976.855   117188750.856 7  91315956.24045  91315956.250 7  87511125.109 8        44.500          32.4004         45.600          50.400
G14  22531986.797    22531992.4304   22531992.027    22531996.895        2843.770        2215.9224       2215.922        2123.594   118406447.363 6  92264739.69144  92264751.694 7  88420392.271 7        41.300          28.8004         43.000          47.600
G17  24219172.453    24219177.9964   24219178.234                        1967.457        1533.0824       1533.082                   127272596.229 6  99173488.99444  99173488.966 5                        36.900          28.2004         33.900
G21  21902568.359    21902572.7584                                      -2061.828       -1606.6174                                  115098754.233 7  89687346.37745                                        46.400          35.9004
G22  20767834.805    20767838.1644                                        341.777         266.3204                                  109135725.649 8  85040859.24846                                        48.600          41.8004
G27  24718062.078    24718071.9414   24718071.426    24718072.391       -2125.625       -1656.3324      -1656.332       -1587.316   129894222.482 5 101216302.22843 101216300.270 6  96998953.728 6        35.400          20.1004         38.600          41.800
G30  23517071.039    23517078.4924   23517079.133    23517080.375       -1125.539        -877.0434       -877.043        -840.500   123583068.101 6  96298504.96545  96298503.977 6  92286066.690 7        39.500          34.2004         39.800          46.600
J01  36718222.289    36718222.520    36718227.383    36718232.832         417.734         417.734         325.508         311.945   192955581.470 6 192955595.456 7 150355021.299 6 144090231.223 7        38.300          42.200          38.900          44.100
J02  36542426.180    36542426.496    36542431.309    36542435.582         430.629         430.629         335.555         321.574   192031749.575 7 192031744.574 8 149635232.472 8 143400350.684 8        47.800          51.200          50.300          52.800
J03  39122969.703    39122969.637    39122973.578    39122978.449        -221.684        -221.684        -172.742        -165.543   205592599.926 7 205592601.920 8 160202051.882 8 153526968.014 8        47.900          51.600          50.500          53.300
J07  36824957.273    36824956.949    36824961.043    36824966.152            .926            .926            .723            .691   193516474.309 6 193516465.308 7 150792072.568 7 144509079.846 8        39.900          44.000          47.900          52.400
R05  22112453.078    22112453.520    22112459.645    22112459.824         372.773         372.773         289.934         289.934   118203773.665 7 118203750.679 7  91936263.281 7  91936284.279 6        46.000          44.900          43.200          41.600
R06  22204778.188    22204776.453                                        3365.121        3365.121                                   118488972.860 6 118489176.815 5                                        36.200          34.700
R09  23921738.609    23921737.543    23921742.324    23921743.391       -4380.039       -4380.039       -3406.699       -3406.699   127740721.601 6 127740728.621 6  99353824.164 5  99353858.106 5        37.300          36.800          35.500          34.200
R10  20706666.070    20706664.930                                       -3143.273       -3143.273                                   110378180.961 8 110378175.948 7                                        48.700          47.800
R20  22041063.117    22041063.094    22041069.672    22041069.367       -1840.676       -1840.676       -1431.637       -1431.637   117863450.130 5 117863599.085 5  91671588.299 6  91671584.315 6        32.400          31.000          41.100          40.800
R21  21053039.758    21053038.715    21053043.223    21053043.953         207.211         207.211         161.164         161.164   112659105.092 8 112659091.100 8  87623751.598 7  87623784.594 7        49.900          48.600          45.800          45.300
> 2021 07 29 00 07 00.0000000  0 25
E01  24875402.453    24875408.445       -2251.219       -1681.105   130721136.271 8  97616461.663 8        48.700          50.100
E12  23872918.031    23872921.613         980.645         732.301   125453042.387 7  93682487.600 7        42.300          44.400
E26  25835524.883    25835532.859       -1874.387       -1399.707   135766575.056 7 101384147.487 7        42.100          44.400
E31  23954947.742    23954953.652         451.090         336.852   125884103.823 8  94004388.882 8        50.500          51.500
E33  24103512.242    24103516.570        -752.094        -561.629   126664806.186 8  94587364.633 8        48.600          51.400
G01  20190470.828    20190478.4924   20190478.230    20190478.711        -996.035        -776.1294       -776.129        -743.793   106101660.924 8  82676645.21648  82676639.213 8  79231780.374 9        48.200          53.2004         49.100          54.500
G03  21142833.594    21142841.4184   21142841.406    21142843.207        2213.797        1725.0354       1725.035        1653.160   111106345.774 8  86576437.18548  86576430.181 8  82969088.534 8        48.100          50.8004         48.200          52.800
G07  23255372.266    23255377.4264   23255377.887                       -2314.051       -1803.1564      -1803.156                   122207837.786 6  95226868.71645  95226942.752 6                        39.700          34.4004         36.400
G08  22307771.125    22307779.1374   22307779.805    22307780.273       -1313.633       -1023.6094      -1023.609        -980.957   117228076.084 7  91346599.24345  91346599.236 7  87540491.311 8        44.000          32.0004         44.600          50.200
G14  22515779.766    22515785.6724   22515785.113    22515789.906        2833.965        2208.2854       2208.285        2116.273   118321280.654 6  92198376.03744  92198388.038 7  88356793.761 7        40.700          27.9004         43.600          47.600
G17  24207933.273    24207938.7734   24207938.895                        1969.938        1535.0164       1535.016                   127213535.741 6  99127467.88744  99127467.873 5                        37.200          27.2004         34.700
G21  21914343.938    21914348.5984                                      -2063.664       -1608.0514                                  115160636.484 7  89735566.29246                                        46.400          36.1004
G22  20765938.047    20765940.9884                                        322.703         251.4574                                  109125757.021 8  85033091.49446                                        48.000          41.8004
G27  24730205.938    24730216.1564   24730215.309    24730217.328       -2129.074       -1659.0204      -1659.020       -1589.895   129958043.826 5 101266033.08043 101266031.094 6  97046612.463 6        34.600          18.3004         37.100          41.100
G30  23523530.047    23523537.7504   23523537.977    23523538.977       -1137.383        -886.2704       -886.270        -849.344   123617008.871 6  96324952.32145  96324951.326 6  92311412.074 7        38.600          34.5004         40.300          45.900
J01  36715840.359    36715840.227    36715844.777    36715849.707         416.910         416.910         324.867         311.328   192943059.868 6 192943073.825 6 150345264.195 6 144080880.682 7        38.700          41.800          38.300          44.500
J02  36539976.344    36539976.035    36539981.016    36539985.215         427.750         427.750         333.312         319.426   192018872.961 7 192018867.952 8 149625198.726 8 143390735.022 8        46.800          51.000          50.200          53.000
J03  39124226.055    39124225.957    39124230.051    39124234.879        -218.617        -218.617        -170.352        -163.254   205599202.181 7 205599204.175 8 160207196.485 8 153531898.262 8        47.200          51.600          50.300          53.500
J07  36824952.406    36824951.734    36824955.688    36824960.684            .848            .848            .660            .633   193516447.115 6 193516438.143 7 150792051.388 8 144509059.540 8        39.900          44.000          48.300          52.500
R05  22110427.602    22110426.809    22110433.098    22110432.816         349.535         349.535         271.863         271.863   118192939.168 7 118192916.178 7  91927836.462 7  91927857.461 6        46.800          45.300          42.300          41.400
R06  22185877.094    22185877.313                                        3358.078        3358.078                                   118388122.929 5 118388326.945 5                                        35.000          34.800
R09  23946338.398    23946338.086    23946343.715    23946344.078       -4377.680       -4377.680       -3404.863       -3404.863   127872090.194 5 127872097.203 5  99455999.508 5  99456033.516 5        34.700          34.300          31.300          31.600
R10  20724401.453    20724400.309                                       -3159.469       -3159.469                                   110472721.775 8 110472716.783 7                                        48.800          47.400
R20  22051383.602    22051382.660    22051388.676    22051388.355       -1838.285       -1838.285       -1429.777       -1429.777   117918631.375 5 117918780.380 5  91714507.034 6  91714503.003 6        32.000          31.100          41.100          41.000
R21  21051886.953    21051886.297    21051891.008    21051891.355         204.043         204.043         158.699         158.699   112652936.859 8 112652922.861 8  87618954.072 7  87618987.068 7        50.000          49.000          46.400          44.800
> 2021 07 29 00 07 30.0000000  0 25
E01  24888280.398    24888286.094       -2260.414       -1687.973   130788810.014 8  97666997.235 8        48.900          50.100
E12  23867335.047    23867337.980         975.352         728.348   125423701.485 7  93660577.213 7        42.800          45.000
E26  25846219.406    25846227.617       -1872.340       -1398.176   135822775.185 6 101426115.061 7        41.700          44.900
E31  23952411.555    23952417.879         437.430         326.652   125870776.223 8  93994436.434 8        49.400          51.400
E33  24107813.383    24107817.527        -754.668        -563.551   126687407.218 8  94604242.029 8        48.000          51.700
G01  20196188.227    20196196.5084   20196196.141    20196196.656       -1007.129        -784.7774       -784.777        -752.078   106131707.311 8  82700057.99248  82700051.987 8  79254217.611 9        48.500          53.5004         49.300          54.700
G03  21130240.000    21130247.3554   21130247.703    21130249.695        2198.277        1712.9414       1712.941        1641.570   111040164.317 7  86524867.23248  86524860.227 7  82919667.340 8        47.200          50.7004         47.800          53.300
G07  23268594.758    23268600.1334   23268600.094                       -2318.160       -1806.3594      -1806.359                   122277319.510 6  95281010.29545  95281084.299 6                        39.000          34.5004         36.900
G08  22315284.750    22315293.2934   22315293.563    22315293.871       -1318.977       -1027.7734      -1027.773        -984.949   117267562.057 7  91377367.51545  91377367.524 7  87569977.575 8        44.300          32.7004         45.300          50.000
G14  22499628.695    22499634.4654   22499633.898    22499639.488        2824.164        2200.6484       2200.648        2108.953   118236406.872 7  92132240.63745  92132252.648 7  88293414.002 8        42.300          30.9004         44.700          49.300
G17  24196681.406    24196686.0204   24196685.969                        1972.438        1536.9654       1536.965                   127154402.858 6  99081390.36644  99081390.391 5                        36.000          27.2004         34.700
G21  21926129.836    21926134.1414                                      -2065.375       -1609.3834                                  115222571.638 7  89783827.42246                                        46.400          36.4004
G22  20764150.266    20764153.4574                                        303.523         236.5124                                  109116362.797 8  85025771.32846                                        48.100          41.6004
G27  24742369.820    24742379.3794   24742379.871    24742380.414       -2132.539       -1661.7194      -1661.719       -1592.480   130021965.765 5 101315842.32043 101315840.330 6  97094346.328 6        34.300          18.6004         37.400          40.400
G30  23530056.633    23530063.8484   23530064.316    23530065.453       -1149.113        -895.4104       -895.410        -858.102   123651306.208 6  96351677.50645  96351676.522 6  92337023.725 7        38.800          34.0004         39.200          45.900
J01  36713460.195    36713460.625    36713464.598    36713469.980         416.559         416.559         324.590         311.066   192930555.092 6 192930569.089 7 150335520.227 6 144071542.724 7        39.900          42.600          39.100          44.000
J02  36537541.820    36537541.926    36537546.863    36537550.930         424.984         424.984         331.156         317.359   192006081.472 8 192006076.465 8 149615231.337 8 143381182.935 8        48.600          51.000          50.800          52.900
J03  39125464.875    39125464.785    39125469.012    39125473.664        -215.570        -215.570        -167.977        -160.980   205605712.276 7 205605714.259 8 160212269.287 8 153536759.688 8        47.300          51.300          50.500          53.200
J07  36824946.883    36824946.633    36824950.738    36824955.742            .844            .844            .656            .629   193516419.891 6 193516410.887 7 150792030.150 8 144509039.184 8        39.900          43.900          48.500          52.300
R05  22108530.547    22108529.867    22108536.109    22108536.293         326.371         326.371         253.844         253.844   118182800.039 7 118182777.027 7  91919950.476 7  91919971.455 7        47.000          46.000          42.600          42.400
R06  22167021.047    22167018.414                                        3351.082        3351.082                                   118287483.372 6 118287687.391 5                                        36.500          35.100
R09  23970926.891    23970925.207    23970931.207    23970931.000       -4375.195       -4375.195       -3402.930       -3402.930   128003384.948 5 128003391.957 5  99558117.475 5  99558151.460 4        33.200          31.600          31.300          29.300
R10  20742227.875    20742226.727                                       -3175.527       -3175.527                                   110567746.668 8 110567741.677 7                                        48.200          47.500
R20  22061691.836    22061690.195    22061697.043    22061696.293       -1836.402       -1836.402       -1428.312       -1428.312   117973751.628 5 117973900.634 5  91757378.276 6  91757374.272 6        33.100          32.100          40.500          41.100
R21  21050752.102    21050751.688    21050755.902    21050756.633         200.793         200.793         156.172         156.172   112646864.452 8 112646850.460 8  87614231.083 7  87614264.087 7        50.300          48.800          46.200          45.900
> 2021 07 29 00 08 00.0000000  0 25
E01  24901210.820    24901216.688       -2269.855       -1695.020   130856759.984 8  97717739.073 8        49.200          50.700
E12  23861780.906    23861783.574         970.137         724.453   125394514.719 7  93638781.928 7        42.300          44.800
E26  25856902.734    25856910.645       -1870.465       -1396.777   135878915.072 7 101468037.694 7        42.600          44.700
E31  23949953.250    23949959.754         423.613         316.332   125857857.767 8  93984789.532 8        50.500          52.400
E33  24112129.102    24112132.863        -757.516        -565.676   126710086.910 8  94621178.151 8        48.200          51.200
G01  20201969.328    20201977.0394   20201976.684    20201976.715       -1018.328        -793.5004       -793.500        -760.438   106162084.546 8  82723728.56448  82723722.560 8  79276901.911 9        48.600          53.6004         49.200          54.500
G03  21117734.945    21117742.1884   21117742.484    21117744.328        2182.508        1700.6564       1700.656        1629.797   110974449.630 8  86473660.99448  86473653.990 7  82870594.696 8        48.200          51.0004         47.300          53.500
G07  23281839.570    23281845.3484   23281845.020                       -2322.152       -1809.4734      -1809.473                   122346919.666 6  95335244.16245  95335318.202 6                        40.200          35.2004         37.900
G08  22322829.648    22322837.8794   22322838.148    22322838.355       -1324.480       -1032.0624      -1032.062        -989.059   117307209.308 7  91408261.43845  91408261.429 7  87599584.247 8        44.100          32.8004         45.000          50.300
G14  22483534.313    22483539.4654   22483539.480    22483544.938        2814.164        2192.8554       2192.855        2101.484   118151828.693 7  92066335.57345  92066347.567 7  88230254.983 8        42.400          31.4004         44.500          49.500
G17  24185414.211    24185420.2544   24185419.609                        1974.496        1538.5664       1538.566                   127095197.557 6  99035256.38444  99035256.356 5                        36.500          27.4004         34.600
G21  21937926.086    21937929.8554                                      -2067.188       -1610.7974                                  115284558.271 7  89832128.68346                                        46.600          36.3004
G22  20762471.953    20762474.6954                                        284.152         221.4184                                  109107543.660 8  85018899.27847                                        48.100          42.1004
G27  24754553.273    24754563.3674   24754563.477    24754563.230       -2135.930       -1664.3594      -1664.359       -1595.012   130085988.731 5 101365730.31143 101365728.370 6  97142155.606 6        33.200          19.9004         37.800          41.300
G30  23536651.047    23536658.3984   23536658.098    23536659.184       -1161.203        -904.8324       -904.832        -867.133   123685957.978 6  96378678.89545  96378677.874 6  92362900.013 7        38.600          33.6004         39.700          45.500
J01  36711083.508    36711084.094    36711088.844    36711093.594         415.898         415.898         324.074         310.574   192918067.653 6 192918081.661 7 150325789.802 6 144062217.714 7        40.200          42.600          39.400          44.000
J02  36535123.898    36535123.969    36535128.871    36535133.156         421.914         421.914         328.762         315.066   191993375.365 8 191993370.359 8 149605330.486 8 143371694.608 8        48.400          50.900          50.300          52.800
J03  39126685.688    39126686.035    39126690.055    39126694.930        -212.617        -212.617        -165.676        -158.773   205612130.248 7 205612132.245 8 160217270.310 8 153541552.348 8        47.600          51.300          50.300          53.400
J07  36824942.289    36824941.699    36824945.039    36824950.277            .766            .766            .598            .570   193516392.635 6 193516383.638 7 150792008.932 7 144509018.847 8        40.600          44.300          47.900          52.200
R05  22106763.664    22106763.852    22106769.883    22106768.934         302.867         302.867         235.562         235.562   118173357.740 7 118173334.750 7  91912606.483 6  91912627.477 6        46.800          46.000          40.900          41.000
R06  22148200.188    22148198.895                                        3343.754        3343.754                                   118187059.631 6 118187263.639 5                                        36.500          35.900
R09  23995499.977    23995499.676    23995502.246    23995504.660       -4372.555       -4372.555       -3400.875       -3400.875   128134602.666 5 128134609.711 4  99660175.47714  99660209.465 4        31.200          29.600          28.000          26.900
R10  20760145.141    20760144.199                                       -3191.703       -3191.703                                   110663252.128 8 110663247.129 8                                        50.000          48.200
R20  22071987.125    22071986.016    22071993.340    22071992.672       -1834.578       -1834.578       -1426.895       -1426.895   118028810.516 5 118028959.494 5  91800201.826 7  91800197.832 7        33.100          31.800          42.300          42.200
R21  21049635.563    21049634.707    21049638.133    21049638.934         197.496         197.496         153.605         153.605   112640886.692 8 112640872.694 8  87609581.690 7  87609614.702 7        49.800          48.500          45.500          44.600
> 2021 07 29 00 08 30.0000000  0 24
E01  24914193.594    24914199.262       -2278.688       -1701.617   130924984.350 8  97768685.828 8        48.300          50.000
E12  23856255.609    23856259.020         965.246         720.801   125365481.069 7  93617100.943 7        42.500          44.900
E26  25867574.047    25867582.105       -1868.270       -1395.137   135934993.943 6 101509914.731 7        41.900          45.000
E31  23947572.805    23947579.254         410.160         306.289   125845348.748 8  93975448.376 8        49.800          51.800
E33  24116459.359    24116463.266        -759.797        -567.383   126732843.893 8  94638172.003 8        48.500          51.600
G01  20207812.609    20207820.2074   20207819.805    20207819.855       -1028.977        -801.8014       -801.801        -768.391   106192790.428 8  82747655.22548  82747649.222 8  79299831.629 9        48.500          53.6004         48.900          54.200
G03  21105318.852    21105326.4844   21105326.559    21105328.695        2167.074        1688.6294       1688.629        1618.270   110909203.811 7  86422820.10248  86422813.098 7  82821872.174 8        47.800          51.1004         47.800          53.000
G07  23295105.477    23295111.3674   23295111.352                       -2325.641       -1812.1884      -1812.188                   122416634.788 6  95389567.59845  95389641.636 6                        38.400          34.8004         37.600
G08  22330405.477    22330413.2894   22330413.707    22330414.305       -1329.539       -1036.0044      -1036.004        -992.836   117347018.953 7  91439281.91445  91439281.929 7  87629312.194 8        43.900          32.3004         45.200          50.000
G14  22467496.594    22467501.3554   22467501.359    22467506.656        2804.422        2185.2624       2185.262        2094.211   118067548.435 7  92000662.64345  92000674.639 7  88167318.433 8        42.900          30.8004         44.700          49.300
G17  24174133.648    24174139.8984   24174139.953                        1977.133        1540.6214       1540.621                   127035919.295 6  98989065.60844  98989065.640 5                        36.200          27.5004         34.900
G21  21949730.844    21949734.3634                                      -2068.629       -1611.9184                                  115346594.456 7  89880468.54045                                        46.500          35.7004
G22  20760903.133    20760906.2194                                        265.262         206.6954                                  109099299.256 8  85012475.07446                                        48.000          41.6004
G27  24766755.727    24766765.4614   24766765.926    24766767.246       -2139.270       -1666.9654      -1666.965       -1597.508   130150112.935 5 101415697.16643 101415695.180 6  97190040.464 6        33.300          18.3004         37.500          41.800
G30  23543311.633    23543319.2814   23543319.309    23543320.191       -1172.645        -913.7504       -913.750        -875.676   123720961.366 6  96405954.25345  96405953.261 6  92389038.897 7        38.200          34.1004         40.300          45.800
J01  36708710.281    36708711.160    36708715.594    36708720.918         415.316         415.316         323.621         310.137   192905597.635 6 192905611.618 7 150316072.869 6 144052905.667 7        39.200          42.000          39.400          44.900
J02  36532722.320    36532722.430    36532727.324    36532731.523         419.367         419.367         326.781         313.164   191980754.342 8 191980749.342 8 149595495.918 8 143362269.811 8        48.500          50.900          50.500          53.000
J03  39127889.609    39127889.840    39127893.953    39127898.551        -209.203        -209.203        -163.016        -156.223   205618455.672 8 205618457.675 8 160222199.211 8 153546275.878 8        48.200          51.500          50.100          53.800
J07  36824937.258    36824936.391    36824940.031    36824945.230            .914            .914            .715            .684   193516365.055 6 193516356.067 7 150791987.441 8 144508998.254 8        40.200          44.400          48.300          52.100
R05  22105128.461    22105127.984    22105133.109    22105133.242         279.914         279.914         217.711         217.711   118164613.536 7 118164590.553 7  91905805.424 6  91905826.429 6        45.900          45.400          41.200          41.600
R06  22129420.172    22129419.543                                        3336.387        3336.387                                   118086855.115 6 118087059.094 5                                        36.400          35.000
R10  20778150.578    20778149.184                                       -3207.219       -3207.219                                   110759233.098 8 110759228.092 7                                        48.400          47.700
R20  22082272.148    22082271.602    22082278.652    22082277.281       -1832.262       -1832.262       -1425.094       -1425.094   118083807.273 5 118083956.257 5  91842977.012 7  91842973.042 6        34.200          32.800          42.000          41.200
R21  21048535.648    21048534.953    21048539.215    21048539.277         194.770         194.770         151.488         151.488   112635001.657 8 112634987.673 8  87605004.455 7  87605037.459 7        50.000          49.100          45.700          45.100
> 2021 07 29 00 09 00.0000000  0 24
E01  24927228.016    24927233.836       -2287.652       -1708.312   130993481.969 8  97819836.635 8        49.000          49.900
E12  23850760.070    23850762.797         960.281         717.094   125336599.976 7  93595533.927 7        42.400          44.900
E26  25878233.883    25878241.547       -1866.051       -1393.480   135991011.525 7 101551745.988 7        42.700          44.200
E31  23945270.586    23945276.520         396.590         296.152   125833250.052 8  93966413.630 8        50.600          51.700
E33  24120804.703    24120808.637        -762.270        -569.227   126755677.335 8  94655222.937 8        48.200          51.200
G01  20213717.523    20213725.5594   20213724.914    20213725.371       -1039.641        -810.1094       -810.109        -776.355   106223823.168 8  82771836.57748  82771830.587 8  79323005.444 9        48.100          53.3004         49.300          54.400
G03  21092992.703    21093000.5554   21093000.371    21093002.508        2151.340        1676.3674       1676.367        1606.520   110844429.667 7  86372346.74748  86372339.749 8  82773501.878 8        47.600          51.1004         48.500          53.000
G07  23308393.195    23308398.1724   23308398.207                       -2329.285       -1815.0274      -1815.027                   122486462.057 6  95443978.43145  95444052.487 5                        39.200          34.2004         35.600
G08  22338011.398    22338020.1884   22338020.223    22338020.832       -1334.977       -1040.2424      -1040.242        -996.898   117386991.615 7  91470429.39045  91470429.395 7  87659161.863 8        44.100          32.0004         45.400          49.800
G14  22451515.922    22451520.9774   22451520.902    22451525.738        2794.332        2177.4024       2177.402        2086.676   117983569.110 7  91935224.22945  91935236.223 7  88104606.604 8        43.700          31.9004         44.500          49.700
G17  24162840.211    24162845.4694   24162845.344                        1979.309        1542.3204       1542.320                   126976568.397 5  98942818.19144  98942818.145 5                        35.000          26.8004         34.900
G21  21961545.609    21961548.8794                                      -2070.105       -1613.0704                                  115408678.783 7  89928845.93045                                        46.500          35.4004
G22  20759443.719    20759447.0394                                        246.148         191.8054                                  109091630.520 8  85006499.45146                                        48.300          41.7004
G27  24778977.391    24778987.1684   24778987.023    24778988.391       -2142.492       -1669.4774      -1669.477       -1599.914   130214338.801 5 101465743.23543 101465741.226 6  97238001.316 7        35.100          18.3004         37.400          42.000
G30  23550038.523    23550046.0784   23550046.316    23550048.590       -1184.145        -922.7114       -922.711        -884.262   123756314.331 6  96433502.00845  96433501.017 6  92415438.838 7        38.500          33.3004         39.400          47.000
J01  36706340.922    36706341.594    36706346.492    36706351.828         414.934         414.934         323.324         309.852   192893145.602 6 192893159.586 6 150306370.034 6 144043607.105 7        38.700          41.200          39.600          45.000
J02  36530337.219    36530337.059    36530341.766    36530346.082         416.559         416.559         324.594         311.066   191968218.867 8 191968213.866 8 149585728.007 8 143352908.903 8        48.500          50.900          50.300          53.000
J03  39129075.609    39129075.836    39129079.930    39129084.855        -206.105        -206.105        -160.602        -153.910   205624688.792 8 205624690.793 8 160227056.189 8 153550930.476 8        48.000          51.500          50.700          53.000
J07  36824931.031    36824930.777    36824935.008    36824939.941           1.121           1.121            .875            .836   193516337.515 6 193516328.503 7 150791965.964 7 144508977.670 8        39.900          44.100          47.900          52.000
R05  22103624.336    22103623.531    22103628.582    22103628.801         256.621         256.621         199.594         199.594   118156569.105 7 118156546.117 7  91899548.692 6  91899569.681 7        47.200          46.100          41.700          42.000
R06  22110684.391    22110683.367                                        3328.992        3328.992                                   117986874.493 6 117987078.521 5                                        36.000          35.000
R10  20796244.672    20796243.258                                       -3222.770       -3222.770                                   110855685.417 8 110855680.419 7                                        48.500          47.500
R20  22092544.914    22092544.633    22092551.043    22092550.746       -1830.191       -1830.191       -1423.480       -1423.480   118138742.057 5 118138891.034 5  91885704.009 7  91885700.028 7        33.700          32.500          42.300          42.300
R21  21047452.898    21047452.645    21047456.566    21047457.602         191.742         191.742         149.133         149.133   112629208.638 8 112629194.639 8  87600498.781 7  87600531.785 7        50.600          48.900          47.000          46.100
> 2021 07 29 00 09 30.0000000  0 24
E01  24940314.250    24940320.156       -2296.848       -1715.176   131062251.253 8  97871190.292 8        49.000          49.900
E12  23845292.828    23845295.418         955.176         713.281   125307870.560 7  93574080.181 7        43.100          44.500
E26  25888881.875    25888889.070       -1864.105       -1392.027   136046967.222 7 101593531.079 7        42.200          43.300
E31  23943046.367    23943052.848         382.750         285.820   125821562.120 8  93957685.631 8        50.600          51.200
E33  24125163.945    24125168.020        -764.844        -571.148   126778585.981 8  94672330.042 8        48.800          51.000
G01  20219684.828    20219692.7544   20219692.344    20219692.676       -1050.660        -818.6954       -818.695        -784.582   106255180.624 8  82796270.94948  82796264.960 8  79346421.715 9        48.400          53.3004         48.900          54.400
G03  21080756.945    21080764.1564   21080764.543    21080766.590        2135.449        1663.9844       1663.984        1594.652   110780129.460 7  86322242.68848  86322235.684 7  82725485.494 8        47.800          51.2004         47.900          53.000
G07  23321701.625    23321707.6024   23321706.582                       -2333.012       -1817.9344      -1817.934                   122556398.447 6  95498474.26045  95498548.281 6                        38.800          34.4004         37.700
G08  22345649.172    22345657.6954   22345658.016    22345658.801       -1340.602       -1044.6254      -1044.625       -1001.098   117427127.389 7  91501703.97245  91501703.984 7  87689133.316 8        43.500          31.5004         44.700          50.000
G14  22435592.875    22435597.7194   22435597.547    22435602.918        2784.125        2169.4494       2169.449        2079.055   117899893.053 7  91870022.11045  91870034.098 7  88042121.244 8        43.200          30.5004         44.200          49.400
G17  24151531.641    24151537.3874   24151536.754                        1981.727        1544.2034       1544.203                   126917144.68415  98896514.01554  98896513.98315                        33.100          24.5004         34.900
G21  21973368.672    21973372.3164                                      -2071.820       -1614.4064                                  115470809.357 7  89977259.34546                                        46.700          36.0004
G22  20758093.773    20758097.2544                                        226.820         176.7424                                  109084537.281 8  85000972.25946                                        48.700          41.0004
G27  24791220.250    24791229.5354   24791229.000    24791229.699       -2146.066       -1672.2584      -1672.258       -1602.582   130278666.758 5 101515868.89443 101515866.851 6  97286038.350 6        34.900          19.9004         38.400          41.300
G30  23556832.664    23556839.8364   23556839.457    23556841.594       -1195.855        -931.8364       -931.836        -893.008   123792014.298 6  96461320.16845  96461319.163 6  92442097.902 7        39.400          34.0004         39.200          46.600
J01  36703975.773    36703975.512    36703980.371    36703985.641         414.086         414.086         322.664         309.219   192880711.883 6 192880725.871 6 150296681.437 6 144034322.187 7        38.000          41.800          40.000          44.700
J02  36527967.883    36527968.168    36527972.848    36527976.859         413.602         413.602         322.289         308.859   191955768.850 8 191955763.852 8 149576026.694 8 143343611.814 8        49.000          51.400          50.200          53.200
J03  39130244.383    39130244.375    39130248.461    39130253.180        -203.078        -203.078        -158.242        -151.648   205630829.357 7 205630831.365 8 160231841.055 8 153555515.968 8        47.800          51.400          50.500          52.900
J07  36824925.508    36824925.668    36824929.293    36824934.680            .863            .863            .672            .645   193516309.716 6 193516300.741 7 150791944.327 7 144508956.932 8        40.000          44.100          47.900          52.000
R05  22102249.461    22102249.215    22102255.676    22102254.672         233.086         233.086         181.289         181.289   118149225.995 7 118149202.985 7  91893837.412 7  91893858.422 6        46.400          45.100          42.000          41.700
R06  22091992.281    22091989.809                                        3321.223        3321.223                                   117887122.685 6 117887326.665 5                                        36.500          35.200
R10  20814426.953    20814425.371                                       -3238.414       -3238.414                                   110952604.914 8 110952599.915 7                                        48.100          47.300
R20  22102807.578    22102806.160    22102812.480    22102811.918       -1828.176       -1828.176       -1421.914       -1421.914   118193614.340 5 118193763.406 5  91928382.463 7  91928378.469 7        34.400          33.600          42.700          42.600
R21  21046387.359    21046386.742    21046391.008    21046391.523         188.547         188.547         146.648         146.648   112623505.859 8 112623491.854 8  87596063.287 7  87596096.291 7        50.500          48.800          46.400          45.900
> 2021 07 29 00 10 00.0000000  0 24
E01  24953452.297    24953458.301       -2305.750       -1721.824   131131291.460 8  97922746.268 8        49.000          49.600
E12  23839854.688    23839857.922         950.172         709.547   125279292.793 7  93552739.653 7        42.800          45.100
E26  25899517.711    25899526.102       -1862.066       -1390.504   136102861.374 6 101635270.167 7        39.900          43.100
E31  23940900.727    23940906.988         369.094         275.621   125810286.304 8  93949265.369 8        50.500          51.800
E33  24129537.625    24129541.680        -767.250        -572.945   126801569.529 8  94689493.062 8        48.200          50.900
G01  20225713.609    20225721.4774   20225720.965    20225721.313       -1061.258        -826.9534       -826.953        -792.496   106286861.489 8  82820957.33048  82820951.325 8  79370079.487 9        48.500          53.5004         48.800          54.400
G03  21068612.094    21068619.2304   21068619.344    21068621.465        2119.598        1651.6334       1651.633        1582.816   110716306.406 7  86272510.45048  86272503.460 7  82677825.446 8        47.600          51.2004         47.600          53.000
G07  23335030.703    23335036.5864   23335036.371                       -2336.438       -1820.6024      -1820.602                   122626441.694 6  95553053.37445  95553127.423 6                        38.800          34.7004         37.600
G08  22353318.680    22353326.7114   22353327.016    22353327.742       -1345.969       -1048.8094      -1048.809       -1005.105   117467428.395 7  91533107.32945  91533107.324 7  87719228.183 8        44.400          32.3004         44.900          50.200
G14  22419728.055    22419733.3714   22419733.258    22419738.383        2773.922        2161.5004       2161.500        2071.438   117816523.879 7  91805059.13645  91805071.139 7  87979865.062 8        43.300          30.9004         44.100          49.600
G17  24140210.344    24140216.1804   24140215.727                        1984.758        1546.5664       1546.566                   126857648.890 6  98850153.64344  98850153.668 6                        36.200          28.0004         36.700
G21  21985200.297    21985204.1564                                      -2073.109       -1615.4104                                  115532985.284 7  90025708.09045                                        46.500          35.2004
G22  20756853.977    20756857.1134                                        207.738         161.8714                                  109078020.794 7  84995894.49946                                        47.900          41.7004
G27  24803479.609    24803490.1524   24803489.746    24803490.664       -2149.398       -1674.8554      -1674.855       -1605.070   130343097.824 5 101566074.83743 101566072.837 6  97334152.384 6        33.600          18.6004         38.500          41.600
G30  23563691.477    23563698.8714   23563699.199    23563700.469       -1207.191        -940.6684       -940.668        -901.473   123828059.540 6  96489407.34545  96489406.362 6  92469014.803 7        38.600          33.2004         39.000          45.700
J01  36701612.711    36701612.934    36701617.598    36701623.512         413.629         413.629         322.309         308.879   192868297.523 6 192868311.522 6 150287007.952 6 144025051.759 7        38.900          41.700          40.500          45.000
J02  36525615.414    36525615.383    36525620.047    36525624.031         410.770         410.770         320.078         306.742   191943405.188 8 191943400.189 8 149566392.668 8 143334379.203 8        49.100          51.300          50.500          53.400
J03  39131395.539    39131395.543    39131399.371    39131404.352        -199.934        -199.934        -155.793        -149.301   205636878.097 7 205636880.096 8 160236554.348 8 153560032.878 8        47.400          51.500          50.700          52.900
J07  36824920.969    36824920.238    36824924.398    36824929.602            .922            .922            .719            .688   193516282.569 6 193516273.580 7 150791923.163 8 144508936.659 8        39.900          43.900          48.200          52.100
R05  22101007.727    22101007.375    22101013.879    22101012.734         209.680         209.680         163.086         163.086   118142585.937 7 118142562.948 7  91888672.965 6  91888693.960 6        47.500          45.800          41.400          41.300
R06  22073340.852    22073339.633                                        3313.438        3313.438                                   117787604.923 5 117787808.910 5                                        35.900          34.700
R10  20832695.859    20832694.227                                       -3253.688       -3253.688                                   111049987.829 8 111049982.831 7                                        48.700          47.400
R20  22113056.563    22113055.605    22113062.105    22113061.477       -1825.801       -1825.801       -1420.070       -1420.070   118248424.656 5 118248573.727 5  91971012.691 7  91971008.664 7        32.800          31.500          42.700          42.300
R21  21045338.633    21045337.590    21045341.707    21045342.137         185.660         185.660         144.402         144.402   112617892.894 8 112617878.888 8  87591697.655 7  87591730.666 7        50.300          49.000          46.000          45.100
> 2021 07 29 00 10 30.0000000  0 24
E01  24966641.336    24966647.512       -2314.656       -1728.477   131200600.354 8  97974502.906 8        48.400          50.100
E12  23834445.289    23834447.613         945.203         705.832   125250865.158 7  93531511.251 7        42.700          44.100
E26  25910142.703    25910150.684       -1859.902       -1388.887   136158692.761 6 101676962.401 7        41.900          44.100
E31  23938833.430    23938839.457         355.328         265.344   125799422.378 8  93941152.689 8        50.500          51.500
E33  24133925.305    24133929.270        -769.695        -574.773   126824626.145 8  94706710.656 8        48.500          50.500
G01  20231803.234    20231811.2304   20231810.895    20231811.047       -1071.961        -835.2934       -835.293        -800.492   106318862.954 8  82845893.55148  82845887.554 8  79393976.701 9        48.100          53.3004         48.900          54.700
G03  21056558.031    21056565.4654   21056565.250    21056567.480        2103.535        1639.1214       1639.121        1570.824   110652962.227 7  86223151.36748  86223144.363 8  82630522.984 8        47.900          51.2004         48.100          53.200
G07  23348378.875    23348385.1764   23348384.367                       -2339.844       -1823.2544      -1823.254                   122696587.989 6  95607712.77845  95607786.814 6                        39.000          34.8004         37.900
G08  22361019.328    22361027.2074   22361027.340    22361028.184       -1351.609       -1053.2034      -1053.203       -1009.320   117507894.541 7  91564639.35445  91564639.344 7  87749446.375 8        44.900          31.0004         45.000          49.800
G14  22403922.172    22403927.2344   22403926.668    22403932.375        2763.566        2153.4264       2153.426        2063.703   117733463.479 7  91740336.73945  91740348.735 7  87917839.444 8        43.400          31.0004         43.100          48.800
G17  24128874.578    24128880.7114   24128880.469                        1987.156        1548.4344       1548.434                   126798079.847 6  98803736.27444  98803736.274 6                        36.200          29.6004         37.300
G21  21997039.742    21997044.1484                                      -2074.535       -1616.5204                                  115595204.196 7  90074190.32745                                        46.400          35.9004
G22  20755723.656    20755726.5004                                        188.426         146.8244                                  109072080.240 8  84991265.50546                                        48.000          41.3004
G27  24815760.102    24815770.0864   24815769.508    24815770.160       -2152.883       -1677.5744      -1677.574       -1607.672   130407631.649 5 101616360.86843 101616358.895 6  97382343.136 6        34.500          19.6004         36.800          41.300
G30  23570615.563    23570623.3204   23570623.324    23570624.652       -1218.680        -949.6214       -949.621        -910.055   123864446.984 6  96517761.19245  96517760.189 6  92496187.212 7        39.100          33.7004         38.800          45.400
J01  36699254.719    36699254.969    36699258.961    36699264.816         412.961         412.961         321.789         308.379   192855902.203 6 192855916.179 7 150277349.270 6 144015795.532 7        39.800          42.400          39.700          45.000
J02  36523278.813    36523278.719    36523283.684    36523287.613         407.969         407.969         317.898         304.652   191931127.148 8 191931122.156 8 149556825.368 8 143325210.540 8        48.900          51.200          50.200          53.000
J03  39132528.625    39132528.949    39132532.746    39132537.734        -196.906        -196.906        -153.434        -147.043   205642834.148 7 205642836.132 8 160241195.425 8 153564480.574 8        47.000          51.400          50.400          53.400
J07  36824915.703    36824915.008    36824919.379    36824924.336            .930            .930            .723            .695   193516255.275 6 193516246.268 7 150791901.881 7 144508916.266 8        40.300          44.100          47.600          52.200
R05  22099897.734    22099896.582    22099901.945    22099902.203         186.219         186.219         144.836         144.836   118136649.957 7 118136626.960 7  91884056.079 6  91884077.083 6        47.500          45.500          41.600          41.500
R06  22054735.586    22054734.500                                        3305.438        3305.438                                   117688324.737 5 117688528.761 5                                        35.700          35.100
R10  20851050.680    20851048.441                                       -3268.914       -3268.914                                   111147829.555 8 111147824.541 7                                        48.500          47.000
R20  22123294.070    22123292.750    22123301.254    22123300.020       -1823.863       -1823.863       -1418.562       -1418.562   118303171.703 5 118303320.711 5  92013593.667 7  92013589.679 7        33.700          31.800          42.900          42.300
R21  21044305.883    21044305.191    21044309.770    21044309.781         182.828         182.828         142.199         142.199   112612367.594 8 112612353.596 8  87587400.209 7  87587433.222 7        50.500          48.800          46.100          45.500
> 2021 07 29 00 11 00.0000000  0 24
E01  24979881.133    24979887.270       -2323.422       -1735.023   131270176.055 8  98026458.769 8        48.700          49.800
E12  23829063.445    23829066.367         940.176         702.078   125222586.481 6  93510394.072 7        41.800          44.200
E26  25920754.922    25920762.422       -1857.770       -1387.293   136214460.542 7 101718607.135 7        42.100          43.700
E31  23936844.648    23936850.590         341.598         255.090   125788970.538 8  93933347.744 8        50.600          51.800
E33  24138326.180    24138330.238        -771.977        -576.477   126847754.352 8  94723981.708 8        48.800          51.500
G01  20237953.578    20237961.2854   20237960.723    20237961.367       -1082.523        -843.5274       -843.527        -808.379   106351182.606 8  82871077.68148  82871071.677 8  79418111.473 9        48.400          53.4004         49.300          54.400
G03  21044594.961    21044602.7774   21044602.824    21044604.934        2087.539        1626.6524       1626.652        1558.875   110590098.695 7  86174166.79748  86174159.792 8  82583579.430 8        47.200          51.3004         48.000          53.000
G07  23361746.398    23361751.6214   23361751.516                       -2343.066       -1825.7664      -1825.766                   122766833.492 6  95662449.49345  95662523.503 6                        39.000          34.1004         37.600
G08  22368750.875    22368759.0314   22368759.504    22368759.449       -1356.984       -1057.3914      -1057.391       -1013.332   117548525.465 7  91596299.77545  91596299.782 7  87779787.608 8        44.400          31.4004         44.400          49.400
G14  22388176.086    22388180.5204   22388180.191    22388185.734        2753.191        2145.3444       2145.344        2055.957   117650714.032 7  91675856.64245  91675868.630 7  87856046.024 8        43.900          31.3004         43.800          49.100
G17  24117525.148    24117530.0784   24117529.801                        1989.551        1550.3014       1550.301                   126738437.261 5  98757261.54844  98757261.534 6                        34.800          28.5004         36.000
G21  22008887.664    22008891.4774                                      -2075.855       -1617.5514                                  115657464.000 7  90122704.44345                                        46.300          35.2004
G22  20754702.273    20754705.4344                                        169.305         131.9264                                  109066714.985 8  84987084.80346                                        48.600          41.2004
G27  24828060.422    24828069.9734   24828069.793    24828070.781       -2156.305       -1680.2384      -1680.238       -1610.227   130472268.178 5 101666726.95742 101666724.934 6  97430610.599 6        35.200          17.8004         36.400          41.900
G30  23577604.930    23577612.3954   23577612.195    23577613.895       -1229.594        -958.1254       -958.125        -918.203   123901173.662 6  96546379.36845  96546378.406 6  92523613.004 7        38.700          33.3004         39.700          46.400
J01  36696899.109    36696899.473    36696904.043    36696909.594         412.406         412.406         321.355         307.965   192843525.891 6 192843539.915 7 150267705.384 6 144006553.507 7        38.600          42.200          39.700          45.000
J02  36520958.531    36520958.684    36520963.305    36520967.457         405.102         405.102         315.664         302.512   191918934.530 8 191918929.524 8 149547324.619 8 143316105.653 8        49.100          51.500          50.800          53.300
J03  39133644.789    39133644.660    39133648.531    39133653.422        -193.766        -193.766        -150.984        -144.695   205648697.008 7 205648699.013 8 160245763.888 8 153568858.684 8        47.400          51.400          50.100          53.100
J07  36824909.992    36824909.836    36824914.078    36824918.883           1.113           1.113            .867            .832   193516227.314 6 193516218.315 7 150791880.117 7 144508895.402 8        40.300          44.100          47.500          52.000
R05  22098918.578    22098917.613    22098923.996    22098923.398         162.746         162.746         126.578         126.578   118131419.011 7 118131396.016 7  91879987.596 6  91880008.596 6        46.500          45.500          41.300          41.200
R06  22036177.094    22036174.688                                        3297.250        3297.250                                   117589286.551 6 117589490.564 5                                        36.000          34.500
R10  20869490.313    20869488.914                                       -3283.922       -3283.922                                   111246124.453 8 111246119.455 7                                        48.000          46.700
R20  22133521.250    22133520.445    22133526.418    22133526.328       -1821.523       -1821.523       -1416.738       -1416.738   118357854.863 5 118358003.874 5  92056125.006 7  92056120.958 7        34.600          33.300          43.200          42.500
R21  21043289.289    21043288.625    21043292.789    21043293.711         179.957         179.957         139.965         139.965   112606928.364 8 112606914.372 8  87583169.713 7  87583202.709 7        49.700          48.800          46.600          45.900
> 2021 07 29 00 11 30.0000000  0 24
E01  24993171.719    24993177.820       -2332.363       -1741.699   131340017.162 8  98078612.819 8        48.700          50.300
E12  23823710.859    23823713.680         935.223         698.379   125194456.130 7  93489387.656 7        42.100          45.100
E26  25931355.391    25931362.836       -1855.715       -1385.762   136270164.359 7 101760204.104 7        42.700          43.500
E31  23934934.320    23934940.090         327.840         244.812   125778931.382 8  93925850.973 8        50.100          51.500
E33  24142740.813    24142744.957        -774.328        -578.234   126870953.156 7  94741305.480 8        47.700          51.200
G01  20244163.672    20244171.7194   20244171.328    20244171.453       -1093.047        -851.7234       -851.723        -816.234   106383818.429 8  82896508.18048  82896502.190 8  79442482.383 9        48.000          53.4004         49.200          54.400
G03  21032724.594    21032732.2624   21032732.590    21032734.320        2071.320        1614.0164       1614.016        1546.766   110527718.680 7  86125559.00048  86125552.003 8  82536996.974 8        47.400          51.2004         48.300          53.100
G07  23375132.180    23375137.4104   23375137.203                       -2346.082       -1828.1174      -1828.117                   122837175.314 6  95717261.26145  95717335.273 6                        39.200          33.9004         37.100
G08  22376514.063    22376522.1024   22376522.418    22376523.473       -1362.664       -1061.8164      -1061.816       -1017.574   117589322.942 7  91628089.97945  91628089.982 7  87810253.207 8        43.800          30.9004         43.800          49.900
G14  22372488.813    22372493.8954   22372493.238    22372498.211        2742.648        2137.1294       2137.129        2048.082   117568278.331 7  91611621.02845  91611633.031 7  87794486.909 8        44.100          32.8004         45.200          48.500
G17  24106161.438    24106166.6134   24106167.344                        1991.617        1551.9104       1551.910                   126678721.061 5  98710729.52844  98710729.530 5                        34.200          27.4004         34.800
G21  22020742.664    22020746.6564                                      -2077.176       -1618.5784                                  115719763.250 7  90171249.29245                                        45.500          35.3004
G22  20753790.969    20753794.1524                                        150.184         117.0234                                  109061925.409 7  84983352.66946                                        47.900          41.7004
G27  24840379.234    24840390.3284   24840389.715    24840390.586       -2159.867       -1683.0124      -1683.012       -1612.887   130537007.858 5 101717173.37943 101717171.386 6  97478955.116 6        34.700          20.4004         38.700          41.900
G30  23584657.906    23584665.7624   23584665.898    23584667.098       -1241.000        -967.0124       -967.012        -926.719   123938237.437 6  96575260.20945  96575259.218 6  92551290.436 7        39.200          33.9004         39.400          45.600
J01  36694547.563    36694548.063    36694552.086    36694558.457         411.559         411.559         320.695         307.332   192831169.056 6 192831183.035 6 150258076.666 6 143997325.980 7        39.600          41.700          39.100          45.900
J02  36518654.539    36518654.676    36518659.445    36518663.559         402.227         402.227         313.426         300.363   191906827.442 8 191906822.441 8 149537890.524 8 143307064.647 8        48.500          51.200          50.300          53.000
J03  39134742.570    39134742.422    39134746.469    39134751.301        -190.652        -190.652        -148.562        -142.371   205654466.786 7 205654468.789 8 160250259.819 8 153573167.289 8        47.300          51.500          50.900          53.100
J07  36824904.977    36824904.664    36824908.598    36824913.484            .953            .953            .742            .711   193516198.890 6 193516189.886 7 150791857.960 8 144508874.175 8        40.100          44.400          48.400          52.700
R05  22098072.297    22098072.074    22098077.605    22098077.250         139.121         139.121         108.203         108.203   118126894.252 7 118126871.262 7  91876468.371 6  91876489.366 6        47.200          45.600          41.600          41.300
R06  22017663.133    22017661.723                                        3289.055        3289.055                                   117490494.601 6 117490698.616 5                                        36.600          35.200
R10  20888014.828    20888013.496                                       -3298.918       -3298.918                                   111344869.157 8 111344864.151 7                                        49.300          47.300
R20  22143734.820    22143734.188    22143740.129    22143739.887       -1819.559       -1819.559       -1415.211       -1415.211   118412474.378 5 118412623.353 5  92098606.774 7  92098602.769 7        34.400          33.500          43.000          42.300
R21  21042288.516    21042288.086    21042292.605    21042292.715         177.129         177.129         137.766         137.766   112601573.883 8 112601559.891 8  87579005.106 7  87579038.132 7        50.000          48.800          46.600          45.300
> 2021 07 29 00 12 00.0000000  0 24
E01  25006512.492    25006518.449       -2341.234       -1748.324   131410122.947 8  98130964.507 8        48.500          50.000
E12  23818386.070    23818388.969         930.309         694.711   125166473.971 7  93468491.919 7        42.300          44.700
E26  25941943.023    25941951.590       -1853.488       -1384.098   136325804.497 7 101801753.515 7        43.300          44.500
E31  23933102.859    23933108.535         313.965         234.457   125769306.181 8  93918663.313 8        50.600          51.600
E33  24147168.867    24147172.664        -776.809        -580.086   126894222.281 8  94758681.754 8        48.300          51.000
G01  20250434.000    20250442.0594   20250441.699    20250441.770       -1103.586        -859.9384       -859.938        -824.109   106416769.146 8  82922184.05348  82922178.056 8  79467088.423 9        48.100          53.2004         49.500          54.100
G03  21020946.938    21020954.5084   21020954.449    21020956.414        2055.016        1601.3124       1601.312        1534.590   110465825.097 7  86077330.25048  86077323.252 8  82490777.762 8        47.700          51.6004         48.700          53.200
G07  23388535.250    23388541.2894   23388540.977                       -2349.422       -1830.7194      -1830.719                   122907611.454 6  95772146.51045  95772220.509 6                        39.300          34.0004         36.200
G08  22384309.539    22384317.3874   22384318.164    22384318.488       -1368.234       -1066.1564      -1066.156       -1021.734   117630287.768 7  91660010.58845  91660010.607 7  87840843.794 8        44.700          31.2004         44.300          49.700
G14  22356862.289    22356867.1684   22356866.512    22356871.633        2732.047        2128.8674       2128.867        2040.164   117486159.752 7  91547632.54745  91547644.574 7  87733164.603 8        44.700          33.0004         45.200          49.100
G17  24094784.461    24094789.4964   24094789.152                        1994.312        1554.0124       1554.012                   126618932.150 5  98664140.83245  98664140.804 6                        35.400          30.7004         36.700
G21  22032605.281    22032609.4494                                      -2078.547       -1619.6484                                  115782101.197 7  90219824.29945                                        46.100          35.8004
G22  20752989.883    20752992.3484                                        130.926         102.0204                                  109057712.760 8  84980070.11046                                        48.000          41.6004
G27  24852719.633    24852729.5944   24852728.750    24852730.598       -2163.293       -1685.6844      -1685.684       -1615.445   130601851.809 5 101767701.10743 101767699.081 5  97527377.510 6        33.800          18.3004         35.800          41.400
G30  23591774.539    23591782.2544   23591782.164    23591782.555       -1252.168        -975.7154       -975.715        -935.059   123975636.403 6  96604402.24345  96604401.226 6  92579218.234 7        38.400          33.1004         39.400          45.200
J01  36692200.102    36692200.941    36692204.688    36692210.703         410.926         410.926         320.199         306.859   192818832.727 6 192818846.734 6 150248463.972 6 143988113.818 7        38.900          41.600          39.400          44.700
J02  36516367.094    36516367.391    36516371.887    36516376.301         399.312         399.312         311.152         298.188   191894806.744 8 191894801.740 8 149528523.742 8 143298088.139 8        48.300          51.100          50.300          52.900
J03  39135822.688    39135822.813    39135826.957    39135831.805        -187.629        -187.629        -146.207        -140.113   205660144.113 7 205660146.102 8 160254683.706 8 153577406.852 8        46.900          51.300          50.000          53.000
J07  36824899.188    36824899.145    36824903.242    36824908.328            .918            .918            .715            .688   193516170.749 6 193516161.750 7 150791836.028 7 144508853.157 8        40.000          43.900          47.900          52.300
R05  22097358.070    22097357.723    22097363.465    22097363.637         115.527         115.527          89.855          89.855   118123077.812 7 118123054.818 7  91873500.063 7  91873521.059 7        46.600          46.000          42.600          42.400
R06  21999197.563    21999195.582                                        3280.488        3280.488                                   117391954.752 6 117392158.745 5                                        36.700          35.700
R10  20906622.828    20906621.086                                       -3313.660       -3313.660                                   111444059.777 8 111444054.772 7                                        48.500          46.800
R20  22153937.273    22153936.516    22153942.492    22153942.348       -1817.309       -1817.309       -1413.461       -1413.461   118467030.383 5 118467179.397 5  92141039.183 7  92141035.178 7        34.900          33.400          42.400          42.700
R21  21041303.391    21041303.020    21041307.578    21041307.773         174.324         174.324         135.586         135.586   112596303.840 8 112596289.849 8  87574906.191 7  87574939.202 7        49.500          48.400          46.400          45.000
> 2021 07 29 00 12 30.0000000  0 24
E01  25019903.047    25019908.586       -2349.855       -1754.762   131480491.236 8  98183512.252 8        48.400          49.700
E12  23813088.922    23813091.551         925.352         691.012   125138638.669 7  93447705.818 7        42.800          44.800
E26  25952519.055    25952527.426       -1851.426       -1382.559   136381379.934 7 101843254.618 7        42.200          44.400
E31  23931349.703    23931355.902         300.273         224.230   125760094.839 8  93911784.718 8        50.200          51.600
E33  24151609.641    24151614.035        -778.895        -581.645   126917560.001 8  94776109.267 8        48.000          51.000
G01  20256763.711    20256771.9494   20256771.344    20256771.727       -1113.887        -867.9614       -867.961        -831.797   106450032.116 8  82948103.23448  82948097.245 8  79491927.648 9        48.100          53.2004         49.200          54.600
G03  21009261.617    21009269.1294   21009269.355    21009271.418        2038.770        1588.6524       1588.652        1522.457   110404419.683 7  86029481.88648  86029474.889 8  82444923.076 8        47.600          51.5004         48.200          53.400
G07  23401956.859    23401961.5704   23401961.961                       -2352.113       -1832.8164      -1832.816                   122978138.332 6  95827102.48945  95827176.516 6                        39.900          34.5004         37.400
G08  22392136.555    22392145.0784   22392145.563    22392146.328       -1373.797       -1070.4924      -1070.492       -1025.887   117671420.256 7  91692061.85645  91692061.889 7  87871559.583 8        43.600          31.0004         44.900          50.200
G14  22341295.898    22341301.0554   22341301.000    22341305.867        2721.336        2120.5204       2120.520        2032.164   117404360.366 7  91483892.79145  91483904.781 7  87672080.644 8        43.700          33.4004         44.900          49.600
G17  24083392.555    24083398.4574   24083398.035                        1996.836        1555.9774       1555.977                   126559070.018 5  98617495.02345  98617495.033 6                        35.000          30.4004         36.500
G21  22044474.789    22044478.8484                                      -2079.641       -1620.5004                                  115844475.574 7  90268427.68145                                        46.600          35.8004
G22  20752297.719    20752300.5824                                        111.727          87.0594                                  109054076.658 7  84977236.80047                                        47.900          42.0004
G27  24865078.492    24865088.4344   24865087.918    24865089.793       -2166.730       -1688.3634      -1688.363       -1618.016   130666799.739 5 101818309.82142 101818307.909 6  97575877.558 6        35.000          17.4004         36.500          41.600
G30  23598954.891    23598962.6524   23598962.469    23598963.570       -1263.090        -984.2274       -984.227        -943.215   124013367.561 6  96633803.13545  96633802.126 6  92607394.081 7        38.400          33.2004         39.500          45.600
J01  36689856.453    36689857.133    36689860.953    36689867.039         410.359         410.359         319.758         306.438   192806516.768 6 192806530.778 7 150238867.158 6 143978916.864 7        38.900          42.000          39.900          45.100
J02  36514096.023    36514096.039    36514101.078    36514104.934         396.492         396.492         308.953         296.082   191882871.898 8 191882866.905 8 149519223.865 8 143289175.759 8        48.300          51.100          50.800          52.700
J03  39136885.836    39136885.480    39136889.363    39136894.316        -184.523        -184.523        -143.785        -137.793   205665728.314 7 205665730.306 8 160259035.030 8 153581576.864 8        47.200          51.400          50.500          53.200
J07  36824894.273    36824893.859    36824897.660    36824902.910           1.016           1.016            .793            .758   193516142.256 6 193516133.254 7 150791813.834 8 144508831.877 8        40.000          43.900          48.000          52.200
R05  22096778.008    22096776.879    22096782.668    22096782.289          91.902          91.902          71.480          71.480   118119970.131 7 118119947.142 7  91871083.004 7  91871103.991 7        46.700          45.500          42.000          42.700
R06  21980778.469    21980776.789                                        3271.984        3271.984                                   117293670.502 6 117293874.485 5                                        36.700          35.000
R10  20925313.344    20925311.063                                       -3328.207       -3328.207                                   111543690.998 8 111543686.000 7                                        48.200          46.300
R20  22164127.625    22164126.625    22164132.891    22164132.348       -1815.418       -1815.418       -1411.992       -1411.992   118521521.823 5 118521670.873 5  92183421.395 7  92183417.377 6        34.500          33.900          42.200          41.700
R21  21040334.766    21040333.703    21040337.551    21040338.496         171.656         171.656         133.512         133.512   112591116.122 8 112591102.130 8  87570871.298 7  87570904.310 7        49.700          48.600          46.400          45.700
> 2021 07 29 00 13 00.0000000  0 24
E01  25033343.508    25033349.039       -2358.566       -1761.266   131551120.496 7  98236254.856 8        47.800          49.200
E12  23807819.922    23807822.656         920.703         687.535   125110949.330 7  93427028.741 7        42.600          44.800
E26  25963081.789    25963089.820       -1849.270       -1380.949   136436890.225 7 101884707.029 7        42.300          44.000
E31  23929675.617    23929681.773         286.359         213.840   125751297.782 8  93905215.481 8        50.300          51.600
E33  24156063.734    24156067.879        -781.219        -583.375   126940965.240 8  94793587.191 8        48.600          51.200
G01  20263152.422    20263160.5904   20263160.227    20263160.316       -1124.188        -875.9884       -875.988        -839.488   106483605.215 8  82974264.08548  82974258.081 8  79516998.450 9        48.100          53.2004         48.900          54.300
G03  20997670.188    20997677.4734   20997677.859    20997679.379        2022.387        1575.8874       1575.887        1510.223   110343504.719 8  85982015.68048  85982008.690 8  82399434.642 8        48.000          51.7004         49.000          53.200
G07  23415394.141    23415399.9734   23415399.438                       -2355.242       -1835.2544      -1835.254                   123048752.577 6  95882126.54045  95882200.523 6                        39.600          35.0004         38.500
G08  22399996.172    22400004.4064   22400004.516    22400005.059       -1379.484       -1074.9224      -1074.922       -1030.133   117712720.733 7  91724244.03045  91724244.039 7  87902400.818 8        43.700          31.0004         44.500          49.900
G14  22325791.477    22325796.8054   22325796.094    22325801.387        2710.652        2112.1954       2112.195        2024.188   117322882.694 7  91420403.69345  91420415.689 7  87611236.951 8        43.800          32.0004         43.900          50.000
G17  24071987.273    24071992.5354   24071992.531                        1999.160        1557.7854       1557.785                   126499133.762 5  98570791.49744  98570791.482 6                        35.000          29.1004         36.400
G21  22056350.664    22056354.6724                                      -2080.867       -1621.4534                                  115906884.915 7  90317058.32345                                        46.000          35.4004
G22  20751715.461    20751718.1524                                         92.422          72.0164                                  109051016.635 8  84974852.36947                                        48.300          42.5004
G27  24877458.219    24877467.4024   24877467.063    24877467.645       -2169.961       -1690.8794      -1690.879       -1620.426   130731851.914 5 101868999.74743 101868997.795 6  97624455.433 6        34.400          18.6004         37.500          40.700
G30  23606196.648    23606205.5664   23606205.039    23606206.195       -1274.266        -992.9344       -992.934        -951.562   124051428.362 6  96663460.90045  96663459.913 6  92635816.094 7        37.000          32.2004         39.900          45.300
J01  36687516.266    36687517.145    36687521.488    36687526.547         409.555         409.555         319.133         305.836   192794221.554 6 192794235.541 6 150229286.482 6 143969735.376 7        39.200          41.900          40.300          44.400
J02  36511841.289    36511841.547    36511846.023    36511850.406         393.559         393.559         306.668         293.891   191871022.998 8 191871017.990 8 149509990.937 8 143280327.537 8        48.600          51.200          50.000          53.100
J03  39137930.086    39137930.297    39137934.395    39137939.066        -181.398        -181.398        -141.348        -135.461   205671219.235 7 205671221.243 8 160263313.681 8 153585677.238 8        46.800          51.200          50.200          53.100
J07  36824888.719    36824888.117    36824892.363    36824897.375           1.117           1.117            .871            .832   193516113.345 6 193516104.365 7 150791791.309 7 144508810.305 8        39.900          44.200          47.800          52.300
R05  22096328.500    22096328.074    22096333.781    22096333.234          68.188          68.188          53.035          53.035   118117572.514 7 118117549.518 7  91869218.199 6  91869239.176 6        46.700          45.200          41.100          41.700
R06  21962410.469    21962407.379                                        3263.289        3263.289                                   117195646.838 6 117195850.877 5                                        37.000          35.800
R10  20944085.086    20944083.766                                       -3342.832       -3342.832                                   111643758.702 7 111643753.695 7                                        47.900          46.800
R20  22174305.336    22174304.223    22174311.059    22174310.723       -1812.969       -1812.969       -1410.086       -1410.086   118575948.667 5 118576097.671 5  92225753.323 7  92225749.297 7        34.300          32.600          42.400          42.900
R21  21039380.359    21039379.496    21039383.172    21039384.355         168.812         168.812         131.301         131.301   112586009.636 8 112585995.629 7  87566899.596 7  87566932.600 7        49.800          47.800          46.900          46.200
> 2021 07 29 00 13 30.0000000  0 24
E01  25046833.211    25046838.637       -2367.344       -1767.820   131622010.177 8  98289191.910 8        48.100          49.800
E12  23802579.039    23802581.398         915.695         683.797   125083406.167 7  93406460.825 7        43.000          45.100
E26  25973633.266    25973641.301       -1847.062       -1379.301   136492335.832 7 101926111.210 7        42.200          43.900
E31  23928080.820    23928086.781         272.441         203.449   125742916.440 8  93898956.692 8        50.300          51.900
E33  24160530.664    24160534.859        -783.504        -585.086   126964437.894 8  94811115.457 8        48.100          51.100
G01  20269600.289    20269608.0124   20269607.504    20269607.902       -1134.520        -884.0434       -884.043        -847.207   106517487.358 8  83000665.74448  83000659.739 8  79542300.023 9        48.400          53.3004         48.500          54.500
G03  20986171.852    20986179.8364   20986179.453    20986181.691        2005.832        1562.9844       1562.984        1497.863   110283083.534 7  85934934.24848  85934927.252 8  82354314.927 8        47.800          51.8004         48.800          53.200
G07  23428847.609    23428852.9694   23428853.242                       -2358.145       -1837.5164      -1837.516                   123119452.104 6  95937217.01445  95937290.994 6                        38.000          32.8004         37.200
G08  22407887.336    22407895.9144   22407895.930    22407896.816       -1385.109       -1079.3094      -1079.309       -1034.336   117754190.855 7  91756558.36345  91756558.361 7  87933368.718 8        43.200          30.2004         45.000          49.600
G14  22310348.156    22310353.5824   22310353.555    22310358.727        2699.609        2103.5944       2103.594        2015.945   117241730.425 7  91357168.17845  91357180.176 7  87550636.233 8        43.400          32.7004         45.100          50.200
G17  24060567.695    24060572.9774   24060573.059                        2001.535        1559.6374       1559.637                   126439125.086 5  98524031.57345  98524031.583 6                        33.700          30.9004         36.600
G21  22068233.539    22068237.7814                                      -2082.035       -1622.3634                                  115969328.442 7  90365715.59445                                        45.700          35.5004
G22  20751242.859    20751245.7194                                         73.223          57.0594                                  109048533.607 7  84972917.56246                                        47.900          41.7004
G27  24889855.328    24889867.5204   24889866.879    24889867.727       -2173.754       -1693.8324      -1693.832       -1623.258   130797009.760 5 101919772.02242 101919770.088 6  97673112.171 6        32.400          17.4004         37.100          40.500
G30  23613501.914    23613510.6884   23613510.789    23613511.617       -1284.969       -1001.2734      -1001.273        -959.555   124089817.251 6  96693374.29845  96693373.325 6  92664483.106 7        38.300          33.4004         39.900          45.900
J01  36685181.391    36685181.688    36685186.238    36685191.438         408.742         408.742         318.500         305.230   192781948.168 6 192781962.151 7 150219722.803 6 143960570.191 7        39.400          42.100          39.700          45.100
J02  36509603.414    36509602.996    36509607.938    36509612.320         390.645         390.645         304.398         291.715   191859261.050 8 191859256.041 8 149500825.788 8 143271544.254 8        49.500          51.200          50.300          53.000
J03  39138957.352    39138957.625    39138961.566    39138966.324        -178.387        -178.387        -139.004        -133.211   205676617.820 7 205676619.822 8 160267520.372 8 153589708.648 8        47.000          51.300          50.400          52.900
J07  36824883.141    36824882.938    36824886.785    36824891.996            .973            .973            .758            .727   193516084.989 6 193516075.992 7 150791769.215 8 144508789.131 8        39.800          44.100          48.200          52.000
R05  22096012.938    22096012.684    22096018.195    22096017.477          44.285          44.285          34.441          34.441   118115886.869 7 118115863.873 7  91867907.166 6  91867928.160 6        46.700          45.300          41.200          41.400
R06  21944090.039    21944087.887                                        3254.191        3254.191                                   117097889.131 6 117098093.129 5                                        37.200          35.900
R10  20962939.922    20962938.090                                       -3357.152       -3357.152                                   111744259.848 8 111744254.850 7                                        48.300          47.300
R20  22184470.313    22184470.004    22184476.164    22184476.855       -1810.844       -1810.844       -1408.434       -1408.434   118630311.774 5 118630460.785 5  92268035.710 6  92268031.681 6        33.500          32.200          41.600          41.500
R21  21038441.422    21038440.527    21038444.105    21038445.152         166.203         166.203         129.270         129.270   112580983.891 8 112580969.907 8  87562990.668 7  87563023.672 7        49.800          48.900          46.900          45.800
> 2021 07 29 00 14 00.0000000  0 24
E01  25060371.938    25060377.773       -2376.055       -1774.324   131693157.793 8  98342321.596 8        48.200          49.400
E12  23797364.484    23797367.699         910.754         680.109   125056007.412 7  93386000.745 7        42.700          44.500
E26  25984171.234    25984179.281       -1845.012       -1377.770   136547715.486 7 101967466.083 7        42.300          43.500
E31  23926565.086    23926570.785         258.477         193.020   125734950.373 8  93893008.003 8        49.800          51.700
E33  24165009.641    24165013.582        -785.840        -586.828   126987975.991 8  94828692.607 8        48.000          51.300
G01  20276106.188    20276114.1484   20276113.551    20276113.641       -1144.793        -892.0474       -892.047        -854.879   106551675.571 8  83027305.91648  83027299.911 8  79567830.200 9        48.100          53.6004         49.100          54.100
G03  20974768.344    20974776.1054   20974775.984    20974778.223        1989.113        1549.9574       1549.957        1485.375   110223157.458 7  85888238.61548  85888231.617 8  82309564.955 8        47.500          51.8004         48.100          53.300
G07  23442316.063    23442322.8284   23442322.836                       -2360.906       -1839.6684      -1839.668                   123190233.434 6  95992371.23045  95992445.251 6                        38.700          33.6004         36.600
G08  22415811.195    22415819.3554   22415820.344    22415820.223       -1390.980       -1083.8794      -1083.879       -1038.719   117795830.775 7  91789005.02045  91789005.036 7  87964463.431 8        43.400          30.3004         44.300          49.400
G14  22294967.813    22294973.2544   22294972.930    22294978.266        2688.527        2094.9574       2094.957        2007.668   117160905.244 7  91294187.51045  91294199.498 7  87490279.782 8        43.700          32.8004         45.700          49.900
G17  24049134.414    24049139.9924   24049139.137                        2003.883        1561.4694       1561.469                   126379042.805 5  98477214.21144  98477214.201 5                        35.800          28.5004         35.500
G21  22080121.867    22080126.6484                                      -2083.086       -1623.1844                                  116031803.420 7  90414397.36945                                        46.100          35.0004
G22  20750880.086    20750882.7894                                         53.797          41.9184                                  109046626.838 8  84971431.77046                                        48.200          41.9004
G27  24902275.859    24902286.1254   24902285.965    24902287.258       -2177.172       -1696.4964      -1696.496       -1625.809   130862272.624 5 101970626.14043 101970624.172 6  97721847.334 6        34.200          18.6004         36.100          41.400
G30  23620869.359    23620877.4024   23620877.602    23620878.695       -1295.887       -1009.7814      -1009.781        -967.707   124128530.853 6  96723540.72445  96723539.759 6  92693392.598 7        38.600          32.8004         39.000          46.000
J01  36682849.938    36682849.746    36682854.223    36682860.383         407.844         407.844         317.801         304.559   192769696.345 6 192769710.335 7 150210175.938 6 143951421.097 7        40.300          42.500          39.700          44.900
J02  36507381.148    36507381.227    36507386.168    36507390.270         387.648         387.648         302.062         289.477   191847585.212 8 191847580.220 8 149491727.725 8 143262825.293 8        48.400          51.100          50.200          52.800
J03  39139967.492    39139967.324    39139971.324    39139975.973        -175.480        -175.480        -136.738        -131.043   205681923.066 7 205681925.062 8 160271654.314 8 153593670.350 8        47.400          51.300          50.500          52.900
J07  36824877.063    36824877.324    36824881.762    36824886.516            .840            .840            .656            .629   193516056.285 6 193516047.288 7 150791746.841 8 144508767.688 8        39.800          44.300          48.100          52.400
R05  22095831.742    22095830.418    22095836.910    22095835.887          20.379          20.379          15.852          15.852   118114913.322 7 118114890.312 7  91867149.998 7  91867171.002 6        46.700          45.400          42.300          41.700
R06  21925822.102    21925818.633                                        3244.859        3244.859                                   117000400.749 6 117000604.738 6                                        37.100          36.200
R10  20981873.492    20981871.621                                       -3371.535       -3371.535                                   111845188.505 7 111845183.513 7                                        47.600          46.000
R20  22194626.188    22194624.969    22194631.359    22194630.449       -1808.965       -1808.965       -1406.973       -1406.973   118684610.027 5 118684759.076 5  92310267.666 6  92310263.629 6        34.600          33.100          41.100          40.700
R21  21037516.359    21037515.945    21037519.852    21037520.516         163.473         163.473         127.145         127.145   112576036.904 8 112576022.912 8  87559143.006 7  87559176.019 7        49.500          48.300          45.700          44.900
> 2021 07 29 00 14 30.0000000  0 25
E01  25073960.047    25073965.727       -2384.492       -1780.625   131764562.004 8  98395642.905 8        48.100          49.500
E12  23792178.289    23792181.168         906.168         676.684   125028752.534 7  93365648.088 7        42.800          45.200
E19  27721641.477    27721649.141        2172.984        1622.684   145678083.147 5 108785661.809 5        30.900          32.400
E26  25994697.797    25994705.965       -1842.703       -1376.047   136603028.942 6 102008771.579 7        41.900          43.000
E31  23925128.281    23925134.246         244.680         182.715   125727400.211 8  93887369.890 8        50.200          51.600
E33  24169501.039    24169505.309        -787.926        -588.383   127011578.673 8  94846317.974 8        48.600          51.000
G01  20282669.984    20282677.7704   20282677.195    20282677.297       -1154.816        -899.8594       -899.859        -862.363   106586167.952 8  83054183.10048  83054177.096 8  79593587.505 9        48.100          53.3004         49.800          54.100
G03  20963459.625    20963467.1804   20963467.414    20963469.402        1972.629        1537.1134       1537.113        1473.066   110163728.984 8  85841930.72948  85841923.731 8  82265186.549 8        48.100          51.8004         48.100          53.500
G07  23455801.711    23455806.7814   23455806.953                       -2363.375       -1841.5904      -1841.590                   123261093.276 6  96047586.66745  96047660.684 6                        39.000          32.8004         36.600
G08  22423767.406    22423775.8014   22423776.426    22423776.523       -1396.570       -1088.2384      -1088.238       -1042.895   117837640.830 7  91821584.25845  91821584.273 7  87995685.203 8        44.000          30.6004         44.200          49.800
G14  22279649.914    22279655.9064   22279655.258    22279660.395        2677.539        2086.3954       2086.395        1999.461   117080410.013 7  91231463.96245  91231475.960 7  87430169.713 8        43.900          34.1004         45.600          49.600
G17  24037686.711    24037692.6254   24037693.152                        2006.383        1563.4144       1563.414                   126318887.070 6  98430339.67444  98430339.708 5                        36.100          28.9004         35.400
G21  22092016.156    22092020.7894                                      -2084.078       -1623.9574                                  116094308.612 7  90463102.69345                                        45.700          35.1004
G22  20750626.492    20750629.5634                                         34.656          27.0044                                  109045296.662 8  84970395.28246                                        48.000          41.8004
G27  24914715.883    24914724.6294   24914724.285    24914725.613       -2180.824       -1699.3444      -1699.344       -1628.539   130927640.953 5 102021562.48342 102021560.492 5  97770661.288 6        35.400          17.8004         34.800          40.200
G30  23628297.195    23628305.2114   23628305.227    23628306.098       -1306.664       -1018.1804      -1018.180        -975.754   124167566.870 6  96753958.39445  96753957.410 6  92722542.856 7        37.800          32.9004         39.200          45.100
J01  36680522.195    36680522.215    36680526.930    36680532.410         407.301         407.301         317.379         304.152   192757466.576 6 192757480.585 6 150200646.251 6 143942288.520 7        38.700          41.600          39.400          44.500
J02  36505175.625    36505175.828    36505180.543    36505184.789         384.773         384.773         299.820         287.328   191835995.810 8 191835990.810 8 149482697.014 8 143254170.854 8        48.500          51.100          50.200          53.100
J03  39140958.852    39140959.199    39140963.223    39140967.789        -172.246        -172.246        -134.219        -128.625   205687135.097 7 205687137.102 8 160275715.654 8 153597562.459 8        47.300          51.200          50.300          52.900
J07  36824871.891    36824871.707    36824876.152    36824880.969            .891            .891            .691            .664   193516027.385 6 193516018.401 7 150791724.319 7 144508746.104 8        40.600          44.100          47.800          52.200
R05  22095782.750    22095781.629    22095787.148    22095786.723          -3.250          -3.250          -2.527          -2.527   118114653.447 7 118114630.467 7  91866947.927 7  91866968.916 6        46.400          45.000          42.000          41.800
R06  21907601.773    21907600.910                                        3235.680        3235.680                                   116903186.772 6 116903390.748 6                                        37.500          36.000
R10  21000886.625    21000885.293                                       -3385.512       -3385.512                                   111946540.738 8 111946535.739 7                                        48.200          46.700
R20  22204767.555    22204766.254    22204774.352    22204772.977       -1806.734       -1806.734       -1405.238       -1405.238   118738843.284 5 118738992.289 5  92352449.003 7  92352444.987 6        34.900          33.600          42.300          41.900
R21  21036606.773    21036605.512    21036610.355    21036610.441         160.984         160.984         125.211         125.211   112571167.442 8 112571153.457 8  87555355.645 7  87555388.642 7        48.800          48.500          45.500          44.600
> 2021 07 29 00 15 00.0000000  0 25
E01  25087596.477    25087602.270       -2392.836       -1786.859   131836221.363 8  98449154.758 8        48.500          49.900
E12  23787019.063    23787022.207         901.285         673.039   125001640.820 7  93345402.338 7        42.600          44.600
E19  27709221.680    27709228.527        2178.051        1626.469   145612814.380 5 108736922.168 5        31.100          33.200
E26  26005210.688    26005218.941       -1840.414       -1374.336   136658275.963 7 102050027.427 7        42.800          44.000
E31  23923770.430    23923776.668         230.844         172.383   125720266.514 8  93882042.781 8        50.300          51.500
E33  24174004.617    24174008.855        -789.930        -589.883   127035244.990 8  94863990.883 8        48.700          50.800
G01  20289290.750    20289298.7704   20289298.336    20289298.656       -1164.828        -907.6604       -907.660        -869.840   106620962.603 8  83081295.80548  83081289.808 8  79619570.508 9        48.200          53.2004         48.700          54.500
G03  20952246.133    20952253.4804   20952253.625    20952255.691        1955.902        1524.0824       1524.082        1460.578   110104800.488 8  85796012.43148  85796005.420 8  82221181.525 8        48.000          52.1004         48.500          53.400
G07  23469299.117    23469305.5044   23469305.090                       -2365.781       -1843.4654      -1843.465                   123332028.834 6  96102861.07445  96102935.103 6                        37.600          31.8004         36.200
G08  22431756.398    22431764.5164   22431764.711    22431766.023       -1402.227       -1092.6454      -1092.645       -1047.117   117879622.213 7  91854297.00545  91854297.021 7  88027034.905 8        44.200          30.2004         43.800          50.100
G14  22264395.648    22264401.1524   22264401.117    22264406.184        2666.504        2077.7974       2077.797        1991.223   117000247.395 7  91168999.61945  91169011.610 7  87370308.057 8        42.800          32.0004         45.000          49.600
G17  24026226.125    24026231.6484   24026230.777                        2009.047        1565.4924       1565.492                   126258657.973 6  98383407.87645  98383407.874 6                        37.200          31.2004         37.400
G21  22103916.383    22103920.2934                                      -2084.918       -1624.6094                                  116156842.756 7  90511830.59045                                        45.600          35.7004
G22  20750483.273    20750486.3094                                         15.480          12.0624                                  109044542.995 8  84969808.02547                                        48.200          42.4004
G27  24927175.500    24927184.3794   24927184.785    24927185.809       -2184.031       -1701.8444      -1701.844       -1630.934   130993115.203 5 102072581.36243 102072579.344 6  97819554.362 7        35.100          19.9004         37.700          42.300
G30  23635786.234    23635794.7704   23635795.031    23635796.332       -1317.191       -1026.3834      -1026.383        -983.617   124206922.818 6  96784625.31345  96784624.315 6  92751932.013 7        38.400          32.6004         39.400          45.800
J01  36678199.539    36678199.371    36678203.832    36678209.727         406.703         406.703         316.914         303.707   192745259.263 6 192745273.274 6 150191134.083 6 143933172.687 7        40.400          41.900          40.000          44.500
J02  36502987.180    36502986.840    36502991.867    36502995.734         381.988         381.988         297.652         285.250   191824492.964 8 191824487.958 8 149473733.754 8 143245581.064 8        49.300          51.100          50.500          52.800
J03  39141933.031    39141933.184    39141937.211    39141941.816        -168.984        -168.984        -131.676        -126.188   205692253.913 7 205692255.927 8 160279704.342 8 153601384.954 8        47.300          51.400          50.500          53.400
J07  36824866.766    36824865.980    36824870.566    36824875.535           1.109           1.109            .863            .828   193515998.382 6 193515989.415 7 150791701.748 8 144508724.459 8        40.000          43.900          48.800          52.800
R05  22095868.594    22095866.859    22095872.070    22095871.777         -27.039         -27.039         -21.031         -21.031   118115108.215 7 118115085.226 7  91867301.660 7  91867322.654 6        47.000          46.200          42.000          41.800
R06  21889437.344    21889434.520                                        3226.543        3226.543                                   116806251.178 6 116806455.182 5                                        36.400          35.600
R10  21019977.969    21019976.930                                       -3399.305       -3399.305                                   112048312.209 8 112048307.204 7                                        48.000          46.500
R20  22214898.281    22214895.863    22214903.418    22214902.961       -1804.516       -1804.516       -1403.512       -1403.512   118793011.699 5 118793160.741 5  92394579.958 7  92394575.939 7        34.700          32.800          42.200          42.300
R21  21035711.203    21035710.109    21035713.520    21035714.559         158.488         158.488         123.270         123.270   112566374.576 8 112566360.577 7  87551627.860 7  87551660.880 7        49.400          47.900          46.200          45.100
> 2021 07 29 00 15 30.0000000  0 25
E01  25101280.891    25101286.875       -2401.254       -1793.145   131908134.630 8  98502856.194 8        48.000          49.300
E12  23781887.102    23781890.066         896.695         669.609   124974671.688 7  93325263.072 7        42.700          44.700
E19  27696771.477    27696779.523        2183.141        1630.266   145547392.718 5 108688068.343 5        30.400          33.300
E26  26015711.117    26015719.602       -1838.227       -1372.703   136713456.454 7 102091233.571 7        42.500          43.600
E31  23922492.445    23922498.449         217.020         162.059   125713549.985 8  93877027.187 8        50.500          51.800
E33  24178519.984    24178524.121        -791.918        -591.367   127058974.218 8  94881710.750 8        48.000          51.000
G01  20295969.305    20295977.3984   20295976.625    20295977.012       -1174.699        -915.3524       -915.352        -877.211   106656057.655 8  83108642.59548  83108636.598 8  79645777.848 9        48.800          53.2004         49.100          54.200
G03  20941127.742    20941135.3244   20941135.727    20941137.301        1939.199        1511.0664       1511.066        1448.105   110046374.469 7  85750485.67548  85750478.678 8  82177551.721 8        47.900          51.9004         48.100          53.300
G07  23482811.141    23482817.7854   23482817.848                       -2368.281       -1845.4144      -1845.414                   123403037.427 6  96158192.40045  96158266.355 6                        37.700          31.4004         36.000
G08  22439778.016    22439786.4064   22439786.832    22439786.965       -1407.914       -1097.0744      -1097.074       -1051.363   117921775.701 7  91887143.85744  91887143.850 7  88058513.125 8        43.800          29.7004         44.600          49.500
G14  22249205.172    22249210.4344   22249210.156    22249215.422        2655.371        2069.1214       2069.121        1982.906   116920420.391 7  91106796.74745  91106808.762 7  87310696.973 8        44.100          33.1004         44.600          49.700
G17  24014751.352    24014756.1024   24014755.551                        2011.180        1567.1524       1567.152                   126198355.777 6  98336419.22644  98336419.267 5                        36.000          28.3004         35.000
G21  22115821.563    22115825.7774                                      -2085.793       -1625.2934                                  116219404.519 7  90560579.98645                                        46.000          35.5004
G22  20750449.844    20750452.6374                                         -3.637          -2.8324                                  109044365.975 8  84969670.09447                                        48.000          42.3004
G27  24939653.773    24939664.4224   24939664.465    24939664.832       -2187.699       -1704.6994      -1704.699       -1633.672   131058695.970 5 102123683.20643 102123681.169 6  97868526.916 6        34.300          18.6004         37.900          41.000
G30  23643336.711    23643344.2704   23643344.285    23643346.105       -1327.531       -1034.4414      -1034.441        -991.340   124246596.442 6  96815539.83045  96815538.825 6  92781558.383 7        38.100          32.1004         39.000          46.000
J01  36675880.867    36675881.316    36675885.824    36675891.082         405.754         405.754         316.172         302.996   192733075.004 6 192733089.013 7 150181639.865 6 143924074.052 7        40.500          42.800          40.100          44.600
J02  36500814.648    36500814.246    36500819.352    36500823.453         379.168         379.168         295.453         283.145   191813077.082 8 191813072.075 8 149464838.263 8 143237056.218 8        48.500          50.800          49.900          52.700
J03  39142889.742    39142889.695    39142893.496    39142898.121        -165.930        -165.930        -129.297        -123.910   205697279.820 7 205697281.820 8 160283620.629 8 153605138.065 8        46.900          51.300          50.000          52.900
J07  36824860.977    36824860.789    36824865.070    36824870.020           1.082           1.082            .844            .809   193515969.586 6 193515960.604 7 150791679.302 8 144508702.955 8        39.800          44.100          48.100          52.400
R05  22096086.625    22096085.563    22096091.270    22096091.535         -50.840         -50.840         -39.543         -39.543   118116278.615 7 118116255.624 7  91868212.022 7  91868233.005 6        46.800          45.800          42.600          41.800
R06  21871322.711    21871321.934                                        3217.105        3217.105                                   116709599.767 5 116709803.739 5                                        35.700          35.700
R10  21039149.234    21039146.926                                       -3413.074       -3413.074                                   112150499.076 7 112150494.077 7                                        47.700          46.200
R20  22225014.750    22225014.281    22225020.613    22225020.625       -1802.547       -1802.547       -1401.980       -1401.980   118847115.532 5 118847264.517 5  92436660.625 7  92436656.654 7        33.400          33.000          42.600          42.300
R21  21034829.422    21034828.594    21034833.145    21034833.246         156.027         156.027         121.355         121.355   112561657.270 8 112561643.287 8  87547958.871 7  87547991.868 7        50.100          48.700          47.200          45.900
> 2021 07 29 00 16 00.0000000  0 25
E01  25115013.563    25115019.578       -2409.699       -1799.453   131980299.266 8  98556745.339 8        48.000          49.400
E12  23776781.781    23776784.566         891.887         666.020   124947843.414 7  93305228.977 7        42.200          44.300
E19  27684293.234    27684301.289        2188.203        1634.051   145481818.676 5 108639100.842 5        30.100          33.700
E26  26026198.320    26026206.082       -1835.941       -1370.996   136768569.047 6 102132389.042 7        41.200          43.400
E31  23921293.797    23921299.801         203.008         151.598   125707250.044 8  93872322.683 8        50.200          51.600
E33  24183047.289    24183051.219        -794.027        -592.941   127082764.333 8  94899476.091 8        48.500          51.300
G01  20302703.969    20302712.3554   20302711.957    20302712.035       -1184.688        -923.1334       -923.133        -884.668   106691450.177 8  83136221.17448  83136215.177 8  79672207.331 9        48.300          53.2004         49.800          54.200
G03  20930105.531    20930113.4184   20930113.551    20930115.254        1922.297        1497.8954       1497.895        1435.480   109988452.188 7  85705351.44048  85705344.435 8  82134298.093 8        47.800          52.2004         48.300          53.600
G07  23496337.891    23496343.9024   23496343.316                       -2370.461       -1847.1134      -1847.113                   123474114.750 6  96213577.26845  96213651.264 6                        37.900          31.4004         36.000
G08  22447832.383    22447840.6094   22447840.840    22447841.316       -1413.707       -1101.5904      -1101.590       -1055.691   117964101.128 7  91920124.70545  91920124.716 7  88090119.777 8        44.400          31.2004         44.500          49.400
G14  22234078.602    22234083.4304   22234083.348    22234089.176        2644.008        2060.2664       2060.266        1974.422   116840930.631 7  91044856.69445  91044868.690 7  87251337.763 8        44.400          31.3004         44.200          50.200
G17  24003261.563    24003267.4734   24003267.012                        2013.723        1569.1334       1569.133                   126137979.203 6  98289372.58745  98289372.597 6                        36.200          30.6004         36.800
G21  22127730.938    22127735.8324                                      -2086.617       -1625.9384                                  116281991.430 7  90609348.98345                                        45.200          35.6004
G22  20750525.352    20750528.5474                                        -22.922         -17.8634                                  109044764.563 8  84969980.69146                                        48.100          41.7004
G27  24952155.227    24952163.6024   24952163.617    24952164.383       -2191.395       -1707.5824      -1707.582       -1636.430   131124382.644 5 102174867.52742 102174865.531 6  97917578.600 6        34.300          17.8004         37.200          40.600
G30  23650946.156    23650954.2704   23650954.492    23650955.344       -1338.105       -1042.6804      -1042.680        -999.234   124286584.264 6  96846699.15145  96846698.164 6  92811419.403 7        38.400          32.4004         39.300          45.400
J01  36673566.633    36673566.852    36673571.094    36673576.547         404.980         404.980         315.570         302.422   192720913.410 6 192720927.403 7 150172163.315 6 143914992.346 7        40.400          42.700          39.000          44.700
J02  36498658.609    36498658.742    36498663.395    36498667.797         376.215         376.215         293.152         280.938   191801747.251 8 191801742.242 8 149456009.821 8 143228595.617 8        48.900          50.900          50.300          52.600
J03  39143827.688    39143827.949    39143832.113    39143836.785        -162.820        -162.820        -126.871        -121.586   205702211.730 7 205702213.739 8 160287463.673 8 153608820.972 8        46.700          51.200          50.000          53.000
J07  36824856.164    36824855.184    36824859.285    36824864.355            .910            .910            .711            .680   193515940.039 6 193515931.035 7 150791656.264 8 144508680.877 8        40.100          44.200          48.300          52.400
R05  22096438.266    22096438.441    22096444.801    22096444.047         -74.754         -74.754         -58.141         -58.141   118118164.825 7 118118141.834 7  91869679.072 7  91869700.061 7        46.700          45.000          42.100          42.000
R06  21853265.352    21853263.566                                        3207.215        3207.215                                   116613235.570 6 116613439.560 5                                        37.400          35.400
R10  21058396.258    21058394.344                                       -3426.656       -3426.656                                   112253095.535 8 112253090.552 7                                        48.300          46.800
R20  22235120.539    22235118.754    22235125.691    22235125.543       -1800.223       -1800.223       -1400.172       -1400.172   118901153.258 5 118901302.240 5  92478689.936 6  92478685.949 7        34.100          31.800          41.800          42.000
R21  21033961.734    21033960.906    21033965.125    21033965.719         153.484         153.484         119.375         119.375   112557013.343 8 112556999.344 8  87544346.901 7  87544379.911 7        50.500          48.800          46.700          45.600
> 2021 07 29 00 16 30.0000000  0 25
E01  25128793.383    25128799.414       -2417.883       -1805.562   132052714.091 7  98610821.325 8        47.700          49.500
E12  23771703.211    23771706.141         887.367         662.645   124921155.555 7  93285299.756 7        42.600          44.800
E19  27671786.000    27671794.434        2193.469        1637.980   145416094.476 5 108590021.088 5        32.800          33.700
E26  26036673.039    26036681.813       -1833.535       -1369.199   136823613.708 6 102173493.779 7        41.300          43.200
E31  23920174.445    23920180.445         189.230         141.309   125701367.479 8  93867929.852 8        50.300          52.100
E33  24187585.766    24187589.918        -795.871        -594.320   127106614.732 7  94917286.439 8        47.900          51.400
G01  20309495.227    20309503.4964   20309503.012    20309503.188       -1194.430        -930.7234       -930.723        -891.945   106727138.496 7  83164030.25548  83164024.264 8  79698857.689 9        47.800          52.9004         48.400          54.500
G03  20919179.719    20919187.5314   20919187.344    20919189.566        1905.457        1484.7734       1484.773        1422.906   109931036.305 7  85660611.81348  85660604.778 8  82091422.595 8        47.900          52.1004         48.800          53.700
G07  23509876.805    23509882.0084   23509881.941                       -2372.598       -1848.7774      -1848.777                   123545258.437 6  96269013.84145  96269087.858 6                        38.600          32.3004         36.000
G08  22455919.750    22455928.1914   22455928.465    22455928.293       -1419.371       -1106.0044      -1106.004       -1059.922   118006599.696 7  91953240.45045  91953240.460 7  88121855.697 8        44.300          30.2004         44.700          49.100
G14  22219017.109    22219022.1024   22219021.910    22219027.707        2632.688        2051.4454       2051.445        1965.969   116761781.143 7  90983181.78045  90983193.783 7  87192232.639 8        44.900          32.2004         44.800          50.200
G17  23991757.711    23991763.2894   23991763.605                        2016.320        1571.1604       1571.160                   126077529.172 5  98242268.63744  98242268.639 6                        35.500          29.7004         36.600
G21  22139645.797    22139650.3364                                      -2087.262       -1626.4384                                  116344602.171 7  90658136.55345                                        45.900          35.4004
G22  20750710.969    20750713.8554                                        -42.012         -32.7384                                  109045738.896 8  84970739.91846                                        48.000          41.5004
G27  24964674.305    24964683.9024   24964683.445    24964684.613       -2194.703       -1710.1604      -1710.160       -1638.902   131190175.872 5 102226134.91242 102226132.965 6  97966709.857 6        32.500          16.9004         36.800          41.000
G30  23658614.578    23658622.4844   23658622.680    23658624.664       -1348.336       -1050.6524      -1050.652       -1006.875   124326884.115 6  96878101.61545  96878100.628 6  92841513.423 7        37.600          31.5004         39.200          45.600
J01  36671257.195    36671256.926    36671261.254    36671266.758         404.289         404.289         315.031         301.906   192708775.113 6 192708789.104 7 150162704.884 6 143905928.048 7        40.300          43.000          40.500          44.900
J02  36496518.773    36496519.129    36496523.824    36496527.965         373.461         373.461         291.008         278.883   191790503.945 8 191790498.934 8 149447248.795 8 143220199.641 8        48.600          50.900          49.300          52.700
J03  39144748.836    39144748.887    39144752.906    39144757.516        -159.621        -159.621        -124.379        -119.195   205707050.033 7 205707052.029 8 160291233.784 8 153612433.995 8        47.000          51.200          50.300          53.200
J07  36824850.047    36824849.555    36824853.445    36824858.586           1.230           1.230            .957            .918   193515910.101 6 193515901.111 7 150791632.946 8 144508658.542 8        40.000          44.200          48.300          52.100
R05  22096925.953    22096925.043    22096929.887    22096930.930         -98.715         -98.715         -76.777         -76.777   118120768.154 7 118120745.150 7  91871703.906 7  91871724.904 7        45.900          44.900          42.800          42.000
R06  21835261.164    21835260.621                                        3197.684        3197.684                                   116517163.556 6 116517367.550 6                                        37.300          36.000
R10  21077719.305    21077717.469                                       -3440.125       -3440.125                                   112356097.870 7 112356092.863 7                                        47.400          46.500
R20  22245213.727    22245212.621    22245219.238    22245219.184       -1797.918       -1797.918       -1398.383       -1398.383   118955125.374 5 118955274.378 5  92520668.213 6  92520664.200 6        33.800          31.900          41.300          41.200
R21  21033107.508    21033106.418    21033110.859    21033111.156         151.266         151.266         117.652         117.652   112552442.240 8 112552428.241 8  87540791.595 7  87540824.607 7        50.000          48.400          47.000          45.700
> 2021 07 29 00 17 00.0000000  0 26
E01  25142621.125    25142627.137       -2426.262       -1811.820   132125378.397 8  98665083.615 8        48.300          50.100
E07  28359562.531    28359572.551         337.660         252.148   149030512.052 5 111289052.601 5        31.100          33.200
E12  23766651.508    23766654.539         882.609         659.094   124894608.222 7  93265475.454 7        43.500          45.000
E19  27659251.086    27659259.188        2197.949        1641.324   145350222.496 5 108540831.050 5        30.900          33.600
E26  26047135.359    26047143.543       -1831.457       -1367.645   136878590.977 7 102214548.202 7        42.000          43.500
E31  23919134.500    23919140.879         175.219         130.844   125695903.545 8  93863849.650 8        50.500          52.000
E33  24192135.750    24192139.797        -797.984        -595.898   127130525.251 8  94935141.694 8        48.200          51.100
G01  20316342.641    20316351.1524   20316350.609    20316350.695       -1204.309        -938.4224       -938.422        -899.320   106763121.383 8  83192068.86748  83192062.870 8  79725728.025 9        48.100          53.2004         49.400          54.500
G03  20908350.563    20908358.3404   20908358.516    20908360.438        1888.438        1471.5084       1471.508        1410.195   109874129.784 7  85616269.07248  85616262.061 8  82048927.493 8        47.800          52.2004         48.900          53.800
G07  23523426.625    23523432.0704   23523431.320                       -2374.625       -1850.3594      -1850.359                   123616466.389 6  96324500.51045  96324574.516 6                        37.900          32.3004         36.000
G08  22464039.789    22464048.2584   22464048.684    22464048.672       -1425.227       -1110.5664      -1110.566       -1064.293   118049272.754 7  91986492.15845  91986492.161 7  88153721.919 8        43.800          30.3004         44.300          49.100
G14  22204021.063    22204026.3094   22204025.539    22204030.902        2621.062        2042.3874       2042.387        1957.289   116682975.413 7  90921774.72345  90921786.711 7  87133384.203 8        46.000          33.9004         45.100          49.000
G17  23980241.172    23980245.7154   23980245.535                        2018.660        1572.9804       1572.980                   126017006.710 6  98195108.28644  98195108.289 5                        36.000          26.5004         33.700
G21  22151564.297    22151569.3094                                      -2088.105       -1627.0984                                  116407236.332 7  90706942.37245                                        45.100          35.4004
G22  20751005.734    20751008.9144                                        -61.242         -47.7234                                  109047289.610 8  84971948.26146                                        48.200          41.7004
G27  24977213.398    24977224.3444   24977224.781    24977226.328       -2198.156       -1712.8484      -1712.848       -1641.480   131256076.910 5 102277486.29942 102277484.353 6  98015921.547 6        30.700          17.4004         36.700          41.300
G30  23666342.109    23666350.2664   23666350.836    23666352.348       -1358.668       -1058.7034      -1058.703       -1014.590   124367494.332 6  96909745.91645  96909744.943 6  92871839.218 7        37.900          32.3004         39.900          45.200
J01  36668951.219    36668951.664    36668956.563    36668961.844         403.480         403.480         314.398         301.301   192696661.336 6 192696675.360 7 150153265.627 6 143896882.086 7        39.700          42.500          39.700          45.500
J02  36494396.016    36494396.250    36494401.090    36494405.285         370.402         370.402         288.625         276.602   191779348.139 8 191779343.137 8 149438555.948 8 143211869.005 8        48.600          50.900          50.200          52.500
J03  39145651.742    39145651.980    39145655.953    39145660.594        -156.613        -156.613        -122.035        -116.953   205711795.491 7 205711797.481 8 160294931.523 8 153615977.674 8        47.000          51.200          50.300          53.000
J07  36824844.922    36824843.871    36824847.996    36824852.973           1.078           1.078            .840            .805   193515880.645 6 193515871.663 7 150791609.995 8 144508636.533 8        40.000          44.200          48.000          52.300
R05  22097547.219    22097547.332    22097552.719    22097552.379        -122.613        -122.613         -95.367         -95.367   118124090.118 7 118124067.114 7  91874287.653 6  91874308.653 6        47.000          45.700          41.600          41.900
R06  21817314.414    21817312.594                                        3187.441        3187.441                                   116421389.495 6 116421593.482 6                                        37.400          36.100
R10  21097117.633    21097115.480                                       -3453.355       -3453.355                                   112459502.464 8 112459497.474 7                                        48.200          46.400
R20  22255292.633    22255292.832    22255300.965    22255299.656       -1795.844       -1795.844       -1396.770       -1396.770   119009032.751 5 119009181.732 5  92562596.078 6  92562592.104 6        33.300          31.700          41.800          41.900
R21  21032266.906    21032266.156    21032269.828    21032270.805         148.805         148.805         115.734         115.734   112547943.601 8 112547929.609 8  87537292.664 7  87537325.668 7        50.500          48.700          47.000          46.300
> 2021 07 29 00 17 30.0000000  0 26
E01  25156495.625    25156501.824       -2434.586       -1818.035   132198289.811 8  98719530.422 8        48.100          49.800
E07  28357666.516    28357676.699         326.672         243.941   149020547.775 5 111281611.804 5        32.200          32.900
E12  23761626.320    23761629.012         877.969         655.625   124868199.728 7  93245754.867 7        42.600          45.200
E19  27646687.891    27646695.758        2203.203        1645.250   145284203.596 5 108491531.251 5        32.600          34.600
E26  26057583.805    26057591.938       -1829.293       -1366.031   136933499.703 6 102255551.425 7        41.700          42.700
E31  23918174.398    23918180.559         161.148         120.336   125690857.818 8  93860081.729 8        50.800          52.400
E33  24196696.742    24196701.469        -799.969        -597.379   127154494.053 7  94953040.483 8        47.600          51.000
G01  20323245.367    20323253.6334   20323253.230    20323253.398       -1214.070        -946.0314       -946.031        -906.613   106799395.985 7  83220334.78848  83220328.791 8  79752816.194 9        47.800          52.8004         48.800          54.400
G03  20897619.477    20897626.5354   20897626.746    20897628.660        1871.312        1458.1684       1458.168        1397.410   109817734.041 8  85572324.36648  85572317.375 8  82006813.824 9        48.000          52.3004         48.500          54.000
G07  23536988.711    23536994.0394   23536994.547                       -2376.715       -1851.9844      -1851.984                   123687734.700 6  96380034.22645  96380108.224 5                        38.300          30.9004         35.800
G08  22472193.625    22472201.8874   22472201.973    22472202.723       -1431.273       -1115.2774      -1115.277       -1068.809   118092119.935 7  92019879.53645  92019879.526 7  88185718.123 8        44.500          30.7004         44.100          49.400
G14  22189090.375    22189095.5744   22189095.246    22189100.387        2609.457        2033.3444       2033.344        1948.621   116604515.227 7  90860636.94445  90860648.942 7  87074793.822 8        45.300          33.2004         44.800          49.300
G17  23968710.063    23968715.4414   23968714.395                        2021.051        1574.8444       1574.844                   125956410.400 6  98147890.51045  98147890.501 6                        37.800          30.8004         36.400
G21  22163487.742    22163492.0044                                      -2088.871       -1627.6914                                  116469891.232 7  90755764.32745                                        45.800          35.4004
G22  20751410.586    20751413.5984                                        -80.555         -62.7704                                  109049415.832 8  84973605.06246                                        48.000          41.6004
G27  24989775.656    24989784.7384   24989785.645    24989786.508       -2202.105       -1715.9264      -1715.926       -1644.430   131322085.166 5 102328921.32242 102328919.295 6  98065213.393 6        35.600          17.8004         36.500          40.600
G30  23674128.867    23674136.4884   23674137.004    23674137.703       -1368.973       -1066.7344      -1066.734       -1022.285   124408411.442 6  96941629.34945  96941628.392 6  92902394.190 7        39.400          32.5004         39.400          45.000
J01  36666651.273    36666651.422    36666655.664    36666660.699         402.555         402.555         313.680         300.609   192684571.730 6 192684585.730 7 150143845.133 6 143887854.132 7        39.200          42.600          38.700          44.800
J02  36492289.766    36492289.828    36492294.496    36492298.879         367.492         367.492         286.355         274.426   191768279.055 8 191768274.057 8 149429930.697 8 143203603.129 8        48.400          50.800          49.800          52.700
J03  39146536.672    39146537.145    39146540.809    39146545.785        -153.562        -153.562        -119.660        -114.676   205716447.259 7 205716449.266 8 160298556.282 8 153619451.402 8        47.000          51.300          50.800          53.200
J07  36824838.609    36824838.414    36824842.578    36824847.609            .840            .840            .656            .629   193515850.889 6 193515841.890 7 150791586.783 8 144508614.297 8        41.100          44.100          48.800          52.200
R05  22098303.109    22098302.867    22098309.238    22098308.348        -146.738        -146.738        -114.129        -114.129   118128131.001 7 118128108.004 7  91877430.571 7  91877451.574 7        46.700          45.700          42.600          42.200
R06  21799421.625    21799420.285                                        3177.371        3177.371                                   116325917.059 6 116326121.131 5                                        37.200          35.600
R10  21116590.766    21116588.715                                       -3466.660       -3466.660                                   112563303.595 8 112563298.596 7                                        48.400          46.900
R20  22265360.578    22265362.316    22265369.359    22265368.926       -1793.707       -1793.707       -1395.105       -1395.105   119062874.241 5 119063023.230 5  92604472.755 6  92604468.755 7        33.300          31.700          41.600          42.200
R21  21031439.430    21031438.047    21031442.648    21031443.016         146.352         146.352         113.828         113.828   112543515.193 8 112543501.194 8  87533848.331 7  87533881.357 7        50.200          48.300          45.800          45.600
> 2021 07 29 00 18 00.0000000  0 26
E01  25170416.930    25170422.691       -2442.590       -1824.012   132271446.435 7  98774160.347 8        47.100          49.500
E07  28355833.555    28355843.684         315.695         235.746   149010914.152 5 111274417.908 5        32.300          32.900
E12  23756626.875    23756629.570         873.480         652.273   124841929.049 7  93226137.138 7        42.600          44.300
E19  27634097.938    27634105.504        2207.805        1648.688   145218039.231 5 108442122.828 6        32.800          36.200
E26  26068019.594    26068027.461       -1826.730       -1364.117   136988339.222 7 102296503.020 7        42.100          43.600
E31  23917293.781    23917299.695         147.438         110.102   125686230.319 8  93856626.120 8        50.300          51.900
E33  24201268.891    24201273.270        -801.754        -598.715   127178519.872 8  94970981.825 8        48.000          51.300
G01  20330203.422    20330211.6374   20330211.078    20330211.480       -1223.520        -953.3914       -953.391        -913.664   106835959.951 8  83248826.17448  83248820.177 8  79780120.444 9        48.000          53.0004         48.400          54.600
G03  20886984.578    20886992.3594   20886992.746    20886994.313        1854.367        1444.9614       1444.961        1384.754   109761850.903 8  85528779.08648  85528772.096 8  81965082.929 8        48.100          52.5004         49.000          53.700
G07  23550561.422    23550567.4414   23550567.078                       -2378.395       -1853.2974      -1853.297                   123759060.281 6  96435612.53545  96435686.541 5                        39.200          31.9004         35.800
G08  22480380.469    22480388.7974   22480389.234    22480389.496       -1436.922       -1119.6804      -1119.680       -1073.027   118135141.982 7  92053403.14845  92053403.167 7  88217844.934 8        44.100          30.8004         44.100          49.500
G14  22174225.953    22174231.5084   22174231.172    22174236.328        2598.070        2024.4694       2024.469        1940.117   116526402.917 7  90799770.23145  90799782.225 7  87016463.223 8        44.600          33.2004         45.400          50.300
G17  23957164.953    23957170.6994   23957170.797                        2023.680        1576.8954       1576.895                   125895740.435 6  98100615.22045  98100615.174 6                        36.800          33.0004         39.200
G21  22175413.633    22175418.4614                                      -2089.371       -1628.0824                                  116532565.551 7  90804601.44245                                        45.400          35.3004
G22  20751924.719    20751927.7154                                        -99.461         -77.5004                                  109052117.287 8  84975710.10047                                        48.200          42.0004
G27  25002356.492    25002366.8524   25002366.063    25002367.711       -2205.340       -1718.4454      -1718.445       -1646.844   131388200.596 5 102380439.72142 102380437.745 5  98114585.279 6        34.400          17.4004         35.100          39.700
G30  23681973.070    23681980.5314   23681980.840    23681981.652       -1379.020       -1074.5624      -1074.562       -1029.789   124449632.658 6  96973749.75445  96973748.764 6  92933176.227 7        38.200          32.0004         38.700          45.200
J01  36664354.984    36664355.469    36664360.176    36664364.844         401.824         401.824         313.109         300.062   192672506.298 6 192672520.323 7 150134443.554 6 143878844.254 7        40.400          42.900          41.000          44.600
J02  36490199.891    36490199.977    36490204.707    36490208.891         364.754         364.754         284.223         272.383   191757296.492 7 191757291.481 8 149421372.838 8 143195401.858 8        47.600          50.800          50.200          52.700
J03  39147404.227    39147404.344    39147408.152    39147412.863        -150.316        -150.316        -117.129        -112.246   205721004.999 7 205721006.983 8 160302107.760 8 153622854.892 8        47.000          51.300          50.800          52.900
J07  36824832.664    36824832.535    36824836.754    36824841.363           1.004           1.004            .781            .750   193515820.471 6 193515811.464 7 150791563.099 7 144508591.594 8        40.500          44.100          47.800          52.200
R05  22099194.070    22099192.605    22099198.570    22099199.117        -170.590        -170.590        -132.684        -132.684   118132891.129 7 118132868.133 7  91881132.920 7  91881153.902 7        45.800          44.500          42.000          42.100
R06  21781587.430    21781586.031                                        3166.938        3166.938                                   116230750.380 6 116230954.344 5                                        36.900          35.700
R10  21136136.500    21136135.219                                       -3479.512       -3479.512                                   112667497.121 7 112667492.123 7                                        47.800          47.000
R20  22275420.227    22275418.250    22275425.066    22275424.629       -1791.234       -1791.234       -1393.184       -1393.184   119116649.713 5 119116798.721 5  92646298.085 6  92646294.099 6        33.700          31.800          41.200          41.200
R21  21030625.383    21030623.832    21030627.352    21030628.211         144.246         144.246         112.191         112.191   112539155.718 8 112539141.727 8  87530457.643 7  87530490.654 7        49.700          48.300          46.800          45.900
> 2021 07 29 00 18 30.0000000  0 26
E01  25184384.352    25184390.695       -2450.730       -1830.090   132344846.944 7  98828972.395 8        47.900          49.100
E07  28354063.648    28354073.777         304.652         227.500   149001612.245 5 111267471.659 5        32.800          32.400
E12  23751653.727    23751656.770         868.859         648.824   124815795.503 7  93206621.849 7        43.200          44.900
E19  27621479.711    27621486.980        2212.449        1652.152   145151731.118 5 108392607.100 5        33.600          35.700
E26  26078442.266    26078450.594       -1824.484       -1362.441   137043109.461 6 102337402.805 7        41.200          43.700
E31  23916492.945    23916499.051         133.367          99.594   125682021.665 8  93853483.290 8        50.100          51.300
E33  24205851.570    24205855.988        -803.645        -600.125   127202601.865 8  94988965.132 8        48.200          51.200
G01  20337215.969    20337224.3244   20337223.848    20337223.906       -1233.141        -960.8914       -960.891        -920.852   106872811.471 8  83277541.63748  83277535.640 8  79807639.434 9        48.100          52.8004         48.600          54.300
G03  20876448.109    20876456.2624   20876456.234    20876457.973        1837.043        1431.4614       1431.461        1371.816   109706482.795 7  85485635.12048  85485628.109 8  81923736.626 8        47.800          52.3004         48.600          53.900
G07  23564144.664    23564150.9224   23564150.168                       -2380.250       -1854.7424      -1854.742                   123830440.598 6  96491233.49045  96491307.488 6                        37.300          31.4004         37.000
G08  22488600.648    22488609.3794   22488609.488    22488609.926       -1442.805       -1124.2664      -1124.266       -1077.418   118178339.840 7  92087063.77344  92087063.769 7  88250103.024 8        45.200          29.5004         45.000          49.400
G14  22159428.344    22159433.5824   22159433.438    22159438.465        2586.277        2015.2814       2015.281        1931.312   116448641.393 7  90739176.82745  90739188.824 7  86958394.577 8        44.900          32.5004         44.700          49.800
G17  23945605.563    23945611.3754   23945611.660                        2026.008        1578.7074       1578.707                   125834997.454 6  98053283.03245  98053283.046 6                        37.100          32.1004         39.000
G21  22187343.953    22187348.1954                                      -2089.957       -1628.5394                                  116595258.181 7  90853452.82745                                        45.600          33.7004
G22  20752548.344    20752551.1134                                       -118.758         -92.5394                                  109055394.143 8  84978263.50146                                        48.100          41.8004
G27  25014957.664    25014968.0784   25014968.895    25014969.426       -2209.070       -1721.3524      -1721.352       -1649.629   131454423.863 5 102432042.21842 102432040.232 5  98164037.619 6        33.500          16.9004         34.700          39.300
G30  23689873.695    23689882.5434   23689882.309    23689884.477       -1389.105       -1082.4184      -1082.418       -1037.316   124491155.550 6  97006105.23245  97006104.252 6  92964183.538 7        38.000          32.3004         38.300          46.300
J01  36662064.594    36662063.863    36662068.352    36662073.527         400.934         400.934         312.418         299.398   192660465.698 6 192660479.687 7 150125061.226 6 143869852.880 7        39.200          42.800          40.800          44.500
J02  36488127.008    36488126.766    36488131.137    36488135.719         361.793         361.793         281.918         270.172   191746400.801 8 191746395.794 8 149412882.713 8 143187265.469 8        48.500          51.100          50.000          52.800
J03  39148253.352    39148253.824    39148257.680    39148262.680        -147.145        -147.145        -114.660        -109.883   205725468.839 7 205725470.848 8 160305586.091 8 153626188.288 8        46.700          51.100          50.300          53.200
J07  36824826.820    36824826.402    36824830.602    36824835.625           1.031           1.031            .805            .770   193515789.726 6 193515780.725 7 150791539.143 8 144508568.643 8        40.000          44.000          48.000          52.300
R05  22100218.875    22100218.668    22100224.184    22100223.668        -194.703        -194.703        -151.438        -151.438   118138371.498 7 118138348.488 7  91885395.439 6  91885416.443 6        46.700          45.700          41.600          41.200
R06  21763811.180    21763809.371                                        3156.789        3156.789                                   116135894.110 6 116136098.119 5                                        36.700          35.800
R10  21155755.336    21155753.645                                       -3492.363       -3492.363                                   112772078.354 7 112772073.364 7                                        47.600          45.500
R20  22285462.672    22285462.656    22285469.867    22285469.039       -1789.059       -1789.059       -1391.492       -1391.492   119170359.352 5 119170508.377 5  92688072.224 6  92688068.206 6        33.300          32.500          41.600          41.600
R21  21029822.047    21029821.918    21029825.688    21029826.488         141.945         141.945         110.402         110.402   112534864.142 8 112534850.137 8  87527119.775 7  87527152.787 7        49.800          48.200          47.000          46.000
> 2021 07 29 00 19 00.0000000  0 26
E01  25198398.680    25198404.355       -2458.723       -1836.059   132418490.619 7  98883966.026 8        47.300          49.300
E07  28352357.406    28352366.078         293.488         219.164   148992643.974 5 111260774.55714        30.600          27.800
E12  23746706.719    23746709.711         864.383         645.480   124789799.263 7  93187209.091 7        43.000          44.600
E19  27608834.984    27608842.238        2217.418        1655.863   145085281.927 5 108342986.031 5        32.600          35.800
E26  26088851.727    26088859.895       -1822.156       -1360.703   137097810.986 7 102378251.310 7        42.000          43.500
E31  23915771.875    23915778.035         119.312          89.098   125678233.059 8  93850654.124 8        50.500          51.500
E33  24210444.813    24210449.180        -805.398        -601.434   127226740.052 8  95006990.399 8        48.000          51.000
G01  20344283.211    20344291.4064   20344290.594    20344290.965       -1242.609        -968.2704       -968.270        -927.922   106909949.400 7  83306480.27648  83306474.278 8  79835372.294 9        47.800          52.9004         48.500          54.300
G03  20866010.773    20866018.5084   20866018.367    20866020.664        1819.754        1417.9884       1417.988        1358.906   109651632.683 7  85442894.78448  85442887.794 8  81882777.143 8        47.700          52.4004         48.600          53.700
G07  23577738.125    23577743.6914   23577743.613                       -2381.785       -1855.9384      -1855.938                   123901872.902 6  96546894.97745  96546968.953 5                        37.800          32.7004         35.400
G08  22496854.492    22496863.4494   22496863.465    22496864.496       -1448.672       -1128.8324      -1128.832       -1081.801   118221714.645 7  92120862.29145  92120862.299 7  88282493.276 8        43.800          30.5004         45.000          49.800
G14  22144698.078    22144703.4304   22144703.250    22144708.379        2574.355        2005.9924       2005.992        1922.410   116371234.122 7  90678859.51245  90678871.523 7  86900590.451 8        45.300          33.8004         44.700          49.700
G17  23934033.133    23934038.1914   23934038.023                        2028.570        1580.7034       1580.703                   125774181.963 6  98005894.28145  98005894.310 6                        38.700          31.2004         36.400
G21  22199277.227    22199281.3794                                      -2090.566       -1629.0124                                  116657968.166 7  90902317.73745                                        45.700          34.5004
G22  20753281.484    20753284.1644                                       -137.973        -107.5124                                  109059246.894 8  84981265.64446                                        48.100          41.9004
G27  25027580.555    25027591.4884   25027591.426    25027592.813       -2212.715       -1724.1914      -1724.191       -1652.352   131520756.093 5 102483729.64342 102483727.722 5  98213571.387 6        31.200          16.3004         35.500          41.200
G30  23697833.352    23697841.3444   23697841.617    23697842.918       -1398.926       -1090.0704      -1090.070       -1044.652   124532978.494 6  97038694.52045  97038693.502 6  92995414.937 7        39.000          33.2004         39.000          45.600
J01  36659778.023    36659777.598    36659782.297    36659787.918         400.246         400.246         311.879         298.887   192648451.179 6 192648465.198 7 150115699.329 6 143860881.037 7        39.000          42.200          40.200          45.500
J02  36486069.742    36486069.938    36486074.594    36486078.965         358.902         358.902         279.664         268.012   191735592.919 7 191735587.925 8 149404460.984 8 143179194.658 8        47.900          51.100          49.900          52.900
J03  39149085.180    39149085.449    39149089.363    39149094.223        -144.008        -144.008        -112.215        -107.539   205729839.720 7 205729841.730 8 160308991.973 8 153629452.258 8        47.000          51.200          50.300          52.800
J07  36824821.234    36824820.895    36824825.125    36824829.914            .895            .895            .699            .668   193515759.517 6 193515750.483 7 150791515.593 8 144508546.068 8        39.900          44.000          48.800          52.100
R05  22101379.242    22101378.797    22101384.094    22101383.844        -218.664        -218.664        -170.074        -170.074   118144573.670 7 118144550.683 7  91890219.390 6  91890240.392 6        46.600          45.300          41.700          41.200
R06  21746094.992    21746093.488                                        3146.195        3146.195                                   116041353.917 6 116041557.932 6                                        37.000          36.600
R10  21175446.047    21175444.891                                       -3505.141       -3505.141                                   112877044.160 7 112877039.161 7                                        47.000          46.400
R20  22295495.148    22295494.520    22295501.809    22295501.098       -1786.891       -1786.891       -1389.805       -1389.805   119224003.782 5 119224152.743 5  92729795.629 7  92729791.615 6        31.300          31.600          42.300          41.800
R21  21029033.305    21029031.895    21029036.785    21029037.270         139.715         139.715         108.668         108.668   112530640.568 8 112530626.576 7  87523834.757 7  87523867.761 7        49.100          47.500          46.400          46.100
> 2021 07 29 00 19 30.0000000  0 26
E01  25212458.195    25212464.297       -2466.691       -1842.012   132492375.308 8  98939139.643 8        48.000          49.100
E07  28350714.859    28350724.129         282.262         210.781   148984009.50414 111254326.75015        29.900          33.100
E12  23741786.336    23741789.184         859.910         642.141   124763938.933 7  93167897.824 7        43.700          45.300
E19  27596162.930    27596170.754        2222.121        1659.375   145018692.763 5 108293260.384 5        32.900          35.400
E26  26099247.492    26099255.469       -1819.855       -1358.984   137152442.926 6 102419047.839 7        41.900          43.800
E31  23915130.820    23915137.258         105.402          78.711   125674864.295 8  93848138.484 8        50.600          51.900
E33  24215048.453    24215052.801        -807.219        -602.793   127250932.824 7  95025056.415 8        47.900          51.300
G01  20351404.117    20351412.5394   20351411.910    20351412.355       -1251.996        -975.5824       -975.582        -934.930   106947371.158 7  83335640.10048  83335634.103 8  79863317.121 9        47.900          52.8004         49.000          54.300
G03  20855672.000    20855679.9024   20855679.934    20855681.699        1802.496        1404.5434       1404.543        1346.020   109597302.107 8  85400559.29648  85400552.292 8  81842205.647 8        48.300          52.6004         49.100          53.800
G07  23591339.703    23591346.5354   23591346.688                       -2383.441       -1857.2274      -1857.227                   123973354.151 6  96602594.59145  96602668.564 6                        38.400          32.6004         36.900
G08  22505142.391    22505150.8794   22505150.770    22505151.746       -1454.559       -1133.4224      -1133.422       -1086.195   118265266.721 7  92154798.94044  92154798.955 7  88315015.884 8        44.000          29.8004         44.000          49.600
G14  22130036.039    22130040.7894   22130040.766    22130046.449        2562.508        1996.7584       1996.758        1913.559   116294183.141 7  90618819.77245  90618831.803 7  86843052.405 8        45.300          32.6004         44.000          50.000
G17  23922446.516    23922451.2424   23922451.027                        2031.066        1582.6484       1582.648                   125713293.390 6  97958448.78345  97958448.781 6                        37.100          30.7004         37.100
G21  22211213.805    22211217.8634                                      -2090.945       -1629.3094                                  116720693.460 7  90951194.57245                                        45.800          35.0004
G22  20754123.781    20754126.7624                                       -157.137        -122.4454                                  109063674.560 8  84984715.77547                                        48.100          42.1004
G27  25040226.188    25040234.6764   25040234.523    25040235.902       -2216.602       -1727.2194      -1727.219       -1655.254   131587197.18915 102535501.85952 102535499.80515  98263186.33916        34.300          16.9004         35.000          41.400
G30  23705848.367    23705856.3444   23705856.375    23705857.719       -1408.867       -1097.8164      -1097.816       -1052.074   124575098.375 6  97071515.20045  97071514.223 6  93026868.095 7        37.900          31.7004         38.700          45.700
J01  36657496.492    36657496.820    36657500.926    36657506.309         399.262         399.262         311.113         298.148   192636462.557 6 192636476.552 7 150106357.532 6 143851928.501 7        40.400          42.500          40.800          45.100
J02  36484029.773    36484029.785    36484034.699    36484038.984         356.020         356.020         277.418         265.855   191724872.388 8 191724867.379 8 149396107.309 8 143171189.058 8        48.300          51.100          50.300          52.700
J03  39149899.547    39149899.543    39149903.477    39149908.215        -140.848        -140.848        -109.750        -105.180   205734117.020 7 205734119.017 8 160312324.914 8 153632646.336 8        47.000          51.200          50.200          53.100
J07  36824816.055    36824815.145    36824819.109    36824824.180           1.129           1.129            .879            .844   193515729.228 6 193515720.257 7 150791492.031 8 144508523.486 8        40.000          44.300          48.200          52.000
R05  22102675.445    22102674.676    22102679.535    22102679.574        -242.637        -242.637        -188.719        -188.719   118151497.722 8 118151474.731 7  91895604.800 7  91895625.806 7        48.000          46.700          42.100          42.100
R06  21728438.156    21728437.246                                        3135.520        3135.520                                   115947134.011 6 115947338.041 6                                        38.300          37.000
R10  21195209.500    21195207.988                                       -3517.715       -3517.715                                   112982389.727 7 112982384.736 7                                        47.900          46.400
R20  22305515.070    22305513.371    22305520.754    22305519.871       -1784.648       -1784.648       -1388.062       -1388.062   119277582.671 5 119277731.638 5  92771468.054 6  92771464.056 6        31.600          30.900          41.500          41.200
R21  21028256.516    21028255.469    21028259.727    21028260.316         137.625         137.625         107.043         107.043   112526483.169 8 112526469.170 7  87520601.200 7  87520634.204 7        49.500          47.800          47.000          45.100
> 2021 07 29 00 20 00.0000000  0 25
E01  25226563.797    25226569.547       -2474.781       -1848.051   132566499.218 7  98994491.895 8        47.400          48.900
E12  23736890.750    23736893.500         855.254         638.664   124738213.453 7  93148687.248 7        43.400          44.900
E19  27583464.938    27583472.609        2226.664        1662.770   144951965.055 5 108243431.339 5        32.300          35.600
E26  26109630.297    26109637.988       -1817.496       -1357.223   137207004.761 7 102459792.042 7        42.300          43.200
E31  23914569.727    23914575.953          91.312          68.188   125671915.408 8  93845936.415 8        50.600          51.800
E33  24219662.602    24219666.840        -809.109        -604.203   127275178.968 8  95043162.302 8        48.600          51.400
G01  20358579.188    20358586.9654   20358586.164    20358586.816       -1261.516        -983.0004       -983.000        -942.039   106985074.443 8  83365019.27448  83365013.263 8  79891472.153 8        48.400          52.7004         48.700          53.900
G03  20845432.219    20845440.2734   20845440.148    20845441.977        1784.953        1390.8754       1390.875        1332.922   109543492.930 7  85358630.08148  85358623.084 8  81802023.485 8        47.800          52.4004         48.900          53.500
G07  23604950.797    23604957.5004   23604956.480                       -2385.035       -1858.4694      -1858.469                   124044880.839 6  96658329.63245  96658403.638 6                        37.900          33.2004         36.500
G08  22513463.859    22513472.4654   22513472.492    22513473.105       -1460.625       -1138.1524      -1138.152       -1090.727   118308996.528 7  92188874.08644  92188874.082 7  88347671.213 8        43.800          29.6004         44.200          49.200
G14  22115441.766    22115447.3054   22115447.309    22115452.121        2550.359        1987.2934       1987.293        1904.488   116217490.880 7  90559059.57945  90559071.582 7  86785782.206 8        44.000          33.2004         45.500          49.800
G17  23910845.016    23910850.7384   23910850.730                        2033.129        1584.2544       1584.254                   125652331.632 6  97910946.04945  97910946.049 6                        38.600          32.2004         36.700
G21  22223152.688    22223157.3444                                      -2091.582       -1629.8054                                  116783432.770 7  91000082.32945                                        45.700          35.0004
G22  20755075.664    20755078.4104                                       -176.336        -137.4024                                  109068676.301 7  84988613.23646                                        47.800          41.4004
G27  25052887.836    25052898.6644   25052898.758    25052900.137       -2220.094       -1729.9454      -1729.945       -1657.863   131653746.916 5 102587358.70842 102587356.726 5  98312882.510 6        32.200          16.9004         35.500          41.200
G30  23713919.570    23713927.6914   23713927.961    23713929.602       -1418.801       -1105.5594      -1105.559       -1059.492   124617512.462 6  97104565.09945  97104564.104 6  93058540.885 7        39.100          32.7004         40.300          45.100
J01  36655219.203    36655219.988    36655224.902    36655229.797         398.312         398.312         310.375         297.441   192624500.061 6 192624514.054 7 150097036.118 6 143842995.476 7        40.500          42.800          41.300          45.000
J02  36482005.828    36482006.352    36482011.059    36482015.602         353.016         353.016         275.078         263.617   191714239.000 8 191714234.003 8 149387821.564 8 143163248.548 8        48.000          51.100          49.600          52.500
J03  39150695.156    39150695.527    39150699.375    39150704.262        -137.910        -137.910        -107.465        -102.984   205738300.451 7 205738302.449 8 160315584.733 8 153635770.319 8        46.700          51.100          50.700          52.800
J07  36824809.594    36824809.332    36824813.473    36824818.102           1.082           1.082            .844            .809   193515698.755 6 193515689.781 7 150791468.269 7 144508500.736 8        40.300          44.000          47.800          52.200
R05  22104105.750    22104104.762    22104110.691    22104109.746        -266.934        -266.934        -207.617        -207.617   118159144.268 7 118159121.266 7  91901552.114 7  91901573.118 6        47.500          45.800          42.300          41.500
R06  21710841.383    21710839.766                                        3124.188        3124.188                                   115853238.350 6 115853442.347 5                                        36.300          35.600
R10  21215041.617    21215040.570                                       -3530.188       -3530.188                                   113088109.934 7 113088104.944 7                                        46.700          46.100
R20  22315522.578    22315521.355    22315528.586    22315527.559       -1782.887       -1782.887       -1386.691       -1386.691   119331095.762 5 119331244.789 5  92813089.341 6  92813085.330 6        33.300          31.900          40.700          40.400
R21  21027491.727    21027491.145    21027495.637    21027495.500         135.312         135.312         105.242         105.242   112522390.590 8 112522376.599 8  87517418.092 7  87517451.096 7        49.800          48.800          46.700          46.000
> 2021 07 29 00 20 30.0000000  0 25
E01  25240714.273    25240720.063       -2482.660       -1853.934   132640860.952 7  99050021.728 8        47.700          49.100
E12  23732020.594    23732023.246         850.852         635.375   124712622.221 7  93129576.941 7        42.700          44.800
E19  27570741.320    27570748.656        2231.293        1666.227   144885100.763 5 108193500.271 5        32.000          35.300
E26  26119999.719    26120007.699       -1815.203       -1355.512   137261496.375 6 102500483.813 7        41.600          43.600
E31  23914088.594    23914094.949          77.246          57.684   125669386.980 8  93844048.288 8        50.100          51.700
E33  24224286.359    24224290.605        -810.840        -605.496   127299477.777 7  95061307.520 8        47.900          50.900
G01  20365806.680    20365815.1214   20365814.383    20365815.004       -1270.723        -990.1724       -990.172        -948.918   107023057.407 7  83394616.37948  83394610.382 8  79919836.052 9        47.800          52.5004         48.700          54.000
G03  20835292.828    20835300.3444   20835300.266    20835302.137        1767.383        1377.1804       1377.180        1319.801   109490207.463 8  85317108.95148  85317101.962 8  81762232.409 8        48.500          52.5004         48.900          53.900
G07  23618570.094    23618576.1334   23618576.324                       -2386.254       -1859.4184      -1859.418                   124116450.579 6  96714098.19445  96714172.189 5                        38.300          33.5004         35.500
G08  22521819.133    22521828.0234   22521828.148    22521829.250       -1466.586       -1142.7934      -1142.793       -1095.180   118352905.074 7  92223088.51944  92223088.530 7  88380460.032 8        43.100          29.4004         43.900          49.400
G14  22100916.477    22100922.1134   22100921.773    22100926.930        2538.305        1977.9024       1977.902        1895.488   116141160.116 7  90499581.09045  90499593.093 7  86728781.994 8        45.100          32.5004         45.400          49.700
G17  23899230.484    23899236.6564   23899237.031                        2035.637        1586.2114       1586.211                   125591297.167 6  97863386.77245  97863386.749 5                        37.700          30.0004         35.200
G21  22235094.070    22235098.0904                                      -2091.918       -1630.0664                                  116846184.715 7  91048979.91545                                        46.300          35.2004
G22  20756136.609    20756139.5514                                       -195.410        -152.2704                                  109074252.191 7  84992958.09346                                        47.700          41.3004
G27  25065573.563    25065583.6334   25065583.105    25065584.539       -2223.516       -1732.6094      -1732.609       -1660.418   131720405.920 5 102639300.68442 102639298.712 6  98362660.256 6        32.800          16.3004         36.200          40.800
G30  23722046.016    23722054.3954   23722054.105    23722055.168       -1428.340       -1112.9924      -1112.992       -1066.617   124660218.140 6  97137842.23945  97137841.244 6  93090431.500 7        38.000          32.6004         38.800          44.800
J01  36652948.508    36652948.477    36652953.188    36652958.211         397.562         397.562         309.789         296.883   192612564.197 6 192612578.238 7 150087735.498 6 143834082.392 7        38.700          42.500          40.200          45.200
J02  36479999.305    36479999.590    36480004.402    36480008.703         350.055         350.055         272.770         261.402   191703693.153 8 191703688.145 8 149379604.012 8 143155373.399 8        49.100          50.900          50.000          52.600
J03  39151473.477    39151473.828    39151477.531    39151482.543        -134.766        -134.766        -105.012        -100.637   205742390.256 7 205742392.272 8 160318771.597 8 153638824.398 8        47.000          51.300          50.700          53.400
J07  36824803.758    36824803.297    36824807.480    36824812.699           1.109           1.109            .863            .828   193515668.284 6 193515659.296 7 150791444.535 8 144508477.984 8        40.900          44.000          48.200          52.000
R05  22105670.563    22105669.469    22105676.043    22105675.953        -291.102        -291.102        -226.414        -226.414   118167514.102 7 118167491.114 7  91908061.991 7  91908082.988 6        46.200          45.100          43.000          41.800
R06  21693307.789    21693305.449                                        3113.289        3113.289                                   115759672.208 6 115759876.206 6                                        37.200          36.100
R10  21234944.547    21234943.137                                       -3542.480       -3542.480                                   113194200.674 7 113194195.668 7                                        47.300          46.100
R20  22325516.789    22325516.840    22325524.523    22325522.758       -1780.457       -1780.457       -1384.801       -1384.801   119384543.508 5 119384692.505 5  92854659.712 6  92854655.731 6        32.200          31.200          41.100          40.900
R21  21026739.281    21026738.020    21026741.996    21026742.602         133.285         133.285         103.668         103.668   112518362.054 8 112518348.063 8  87514284.787 7  87514317.791 7        50.000          48.800          46.500          45.500
> 2021 07 29 00 21 00.0000000  0 25
E01  25254909.961    25254915.723       -2490.516       -1859.801   132715458.533 7  99105727.692 8        47.600          48.900
E12  23727176.438    23727179.211         846.367         632.027   124687164.145 7  93110566.037 7        43.200          45.100
E19  27557991.430    27557998.844        2235.637        1669.469   144818101.164 5 108143468.109 5        30.600          34.000
E26  26130355.719    26130364.090       -1812.914       -1353.801   137315917.173 6 102541122.687 7        41.000          43.300
E31  23913687.383    23913693.418          63.219          47.211   125667278.869 8  93842474.049 8        50.400          51.600
E33  24228920.000    24228924.395        -812.520        -606.750   127323827.912 8  95079491.063 8        48.200          51.200
G01  20373087.359    20373095.7424   20373095.238    20373095.527       -1279.914        -997.3364       -997.336        -955.781   107061317.703 7  83424429.57748  83424423.587 8  79948407.041 9        47.600          52.3004         48.800          54.000
G03  20825252.516    20825259.9804   20825260.344    20825262.098        1749.891        1363.5514       1363.551        1306.734   109437447.343 8  85275997.18948  85275990.192 8  81722833.638 8        48.700          52.7004         48.500          53.700
G07  23632197.648    23632202.6994   23632203.527                       -2387.430       -1860.3364      -1860.336                   124188059.877 6  96769897.61345  96769971.640 5                        38.600          32.9004         35.600
G08  22530208.648    22530217.1134   22530217.266    22530218.352       -1472.590       -1147.4734      -1147.473       -1099.660   118396992.632 7  92257442.44344  92257442.452 7  88413382.553 8        43.900          29.9004         43.200          49.000
G14  22086460.398    22086465.6844   22086465.738    22086471.023        2526.094        1968.3874       1968.387        1886.371   116065193.163 7  90440386.07645  90440398.078 7  86672053.434 8        45.200          33.6004         45.600          50.900
G17  23887603.289    23887608.3794   23887607.922                        2037.789        1587.8874       1587.887                   125530189.859 5  97815770.73145  97815770.656 6                        35.800          30.9004         37.100
G21  22247037.445    22247041.5664                                      -2092.309       -1630.3714                                  116908947.484 7  91097885.94445                                        46.000          34.9004
G22  20757306.844    20757310.1954                                       -214.555        -167.1844                                  109080401.677 8  84997749.90646                                        48.100          41.5004
G27  25078278.953    25078289.4104   25078288.902    25078290.320       -2227.500       -1735.7114      -1735.711       -1663.391   131787174.191 5 102691327.81142 102691325.818 5  98412519.607 6        32.200          15.6004         34.200          38.100
G30  23730227.305    23730235.9384   23730235.680    23730237.328       -1438.016       -1120.5314      -1120.531       -1073.844   124703212.469 6  97171344.28445  97171343.304 6  93122537.634 7        37.700          31.8004         39.200          45.300
J01  36650682.813    36650682.277    36650687.355    36650692.520         396.484         396.484         308.949         296.078   192600655.123 6 192600669.112 7 150078455.660 6 143825189.208 7        39.700          42.800          40.300          45.600
J02  36478009.430    36478009.434    36478014.090    36478018.199         347.160         347.160         270.516         259.242   191693234.498 8 191693229.476 8 149371454.398 8 143147563.361 8        49.200          51.200          50.000          52.600
J03  39152234.211    39152234.137    39152238.234    39152242.938        -131.680        -131.680        -102.605         -98.332   205746386.007 7 205746388.015 8 160321885.159 8 153641808.227 8        47.000          51.200          50.600          53.400
J07  36824797.938    36824797.484    36824801.730    36824806.746            .898            .898            .703            .672   193515637.493 6 193515628.489 7 150791420.532 8 144508454.977 8        39.600          43.900          48.300          52.000
R05  22107372.227    22107371.590    22107377.457    22107377.141        -315.148        -315.148        -245.117        -245.117   118176607.143 7 118176584.160 7  91915134.399 7  91915155.394 7        47.200          45.400          42.300          42.600
R06  21675836.484    21675834.617                                        3102.141        3102.141                                   115666439.208 6 115666643.232 6                                        38.100          36.800
R10  21254916.086    21254914.637                                       -3554.516       -3554.516                                   113300656.973 7 113300651.981 7                                        47.900          46.600
R20  22335500.484    22335498.910    22335505.719    22335504.766       -1778.621       -1778.621       -1383.371       -1383.371   119437925.134 5 119438074.084 5  92896178.710 6  92896174.746 6        33.100          31.800          40.100          40.000
R21  21025997.383    21025997.051    21026001.152    21026001.371         131.164         131.164         102.016         102.016   112514395.993 8 112514381.987 8  87511200.081 7  87511233.077 7        50.100          48.400          46.400          45.500
> 2021 07 29 00 21 30.0000000  0 25
E01  25269149.797    25269155.594       -2498.480       -1865.746   132790290.489 8  99161608.675 8        48.100          49.200
E12  23722357.047    23722359.602         841.980         628.750   124661838.459 7  93091654.025 7        42.400          44.600
E19  27545216.492    27545223.922        2239.836        1672.605   144750968.117 5 108093336.369 5        31.800          34.500
E26  26140698.234    26140706.227       -1810.652       -1352.109   137370266.870 6 102581708.467 7        41.100          43.200
E31  23913366.258    23913372.465          49.062          36.641   125665591.453 8  93841213.963 8        50.100          52.000
E33  24233563.492    24233567.469        -814.219        -608.020   127348228.556 8  95097712.317 8        48.200          50.900
G01  20380421.211    20380428.9534   20380428.281    20380428.414       -1289.320       -1004.6644      -1004.664        -962.805   107099853.445 7  83454457.41848  83454451.421 8  79977183.712 9        47.600          52.5004         48.800          54.100
G03  20815313.211    20815320.5514   20815320.723    20815322.816        1732.129        1349.7114       1349.711        1293.473   109385214.731 8  85235296.46948  85235289.464 8  81683828.780 9        48.300          52.7004         49.300          54.100
G07  23645830.867    23645837.5234   23645837.383                       -2388.949       -1861.5204      -1861.520                   124259706.008 6  96825725.72045  96825799.714 6                        38.300          33.2004         36.600
G08  22538632.570    22538641.1174   22538641.566    22538642.418       -1478.633       -1152.1804      -1152.180       -1104.172   118441259.610 7  92291936.17744  92291936.190 7  88446439.033 8        44.300          29.7004         44.000          49.400
G14  22072074.977    22072079.0664   22072079.059    22072084.773        2513.758        1958.7704       1958.770        1877.156   115989592.666 7  90381476.62145  90381488.627 7  86615598.549 8        46.800          33.5004         44.200          50.300
G17  23875960.508    23875965.7384   23875965.852                        2040.379        1589.9064       1589.906                   125469009.806 6  97768097.99345  97768097.954 6                        37.200          30.7004         36.100
G21  22258982.336    22258987.1454                                      -2092.598       -1630.5944                                  116971719.645 7  91146799.28445                                        45.400          33.9004
G22  20758586.336    20758589.3134                                       -233.762        -182.1524                                  109087124.670 8  85002988.60347                                        48.100          42.0004
G27  25091005.539    25091016.0434   25091015.836    25091016.965       -2231.254       -1738.6414      -1738.641       -1666.195                                                                          32.900          15.6004         34.900          38.900
G30  23738463.898    23738472.0554   23738471.941    23738472.855       -1447.703       -1128.0824      -1128.082       -1081.078   124746493.073 6  97205069.41545  97205068.398 6  93154857.489 7        38.600          32.8004         40.200          44.900
J01  36648420.781    36648421.270    36648425.656    36648431.691         395.516         395.516         308.191         295.352   192588773.181 6 192588787.200 7 150069197.037 6 143816316.375 7        39.800          42.800          40.800          45.400
J02  36476035.641    36476036.004    36476040.656    36476044.664         344.176         344.176         268.188         257.016   191682863.203 8 191682858.205 8 149363372.887 8 143139818.565 8        49.200          51.100          50.100          52.400
J03  39152976.781    39152976.898    39152980.891    39152985.480        -128.582        -128.582        -100.195         -96.020   205750287.772 7 205750289.782 8 160324925.496 8 153644721.887 8        47.200          51.500          50.200          53.200
J07  36824792.195    36824791.719    36824796.078    36824800.863           1.023           1.023            .797            .762   193515606.423 6 193515597.444 7 150791396.343 8 144508431.788 8        41.000          43.900          48.400          52.000
R05  22109207.617    22109207.738    22109213.211    22109213.461        -339.418        -339.418        -263.992        -263.992   118186424.162 7 118186401.156 7  91922769.853 7  91922790.842 6        46.000          45.200          42.300          41.700
R06  21658427.383    21658426.344                                        3090.660        3090.660                                   115573544.423 6 115573748.388 6                                        38.800          37.100
R10  21274955.352    21274952.777                                       -3566.711       -3566.711                                   113407474.659 7 113407469.668 7                                        46.800          46.000
R20  22345470.391    22345469.109    22345476.156    22345475.551       -1776.164       -1776.164       -1381.461       -1381.461   119491241.025 5 119491390.050 5  92937646.610 6  92937642.621 6        33.000          30.600          40.500          40.100
R21  21025268.102    21025267.422    21025270.750    21025272.004         129.004         129.004         100.336         100.336   112510491.695 8 112510477.697 8  87508163.396 7  87508196.400 7        49.700          48.400          46.200          45.000
> 2021 07 29 00 22 00.0000000  0 25
E01  25283434.156    25283440.023       -2505.941       -1871.320   132865355.107 7  99217663.404 8        47.700          48.500
E12  23717562.563    23717565.066         837.703         625.559   124636644.366 7  93072840.278 7        43.000          44.700
E19  27532416.336    27532424.172        2244.332        1675.961   144683703.291 5 108043106.173 5        30.600          34.600
E26  26151027.242    26151035.086       -1807.855       -1350.023   137424545.196 6 102622240.954 7        41.900          43.200
E31  23913125.492    23913131.453          35.254          26.324   125664325.004 8  93840268.248 8        50.500          51.800
E33  24238215.875    24238220.516        -815.754        -609.164   127372678.687 8  95115970.531 8        48.100          51.300
G01  20387806.133    20387813.8054   20387813.426    20387813.703       -1298.129       -1011.5314      -1011.531        -969.383   107138662.534 8  83484698.27448  83484692.270 8  80006164.531 9        49.100          52.5004         48.300          54.400
G03  20805474.391    20805481.7154   20805482.148    20805483.910        1714.684        1336.1174       1336.117        1280.445   109333511.601 8  85195008.32748  85195001.323 8  81645219.320 8        48.800          52.7004         49.100          53.800
G07  23659471.711    23659478.1054   23659477.215                       -2389.867       -1862.2344      -1862.234                   124331385.931 6  96881580.11945  96881654.131 6                        37.700          33.0004         36.300
G08  22547090.430    22547099.2464   22547099.605    22547099.992       -1484.570       -1156.8094      -1156.809       -1108.609   118485707.185 7  92326570.61845  92326570.631 7  88479630.364 8        43.900          30.0004         44.000          48.900
G14  22057758.617    22057763.1294   22057763.016    22057768.977        2501.629        1949.3244       1949.324        1868.102   115914361.245 7  90322854.74345  90322866.753 7  86559419.237 8        45.100          33.1004         45.400          51.200
G17  23864304.859    23864309.9184   23864310.176                        2043.230        1592.1294       1592.129                   125407757.066 6  97720368.53945  97720368.575 5                        38.600          31.7004         35.200
G21  22270929.336    22270933.8164                                      -2092.707       -1630.6804                                  117034500.244 7  91195719.21045                                        45.500          34.4004
G22  20759974.711    20759977.6484                                       -252.621        -196.8484                                  109094420.552 7  85008673.72047                                        47.900          42.0004
G27  25103752.469    25103763.2464   25103762.848    25103764.594       -2234.543       -1741.1994      -1741.199       -1668.652   131921039.75615 102795638.57452 102795636.60015  98512483.99216        30.700          15.6004         34.500          39.700
G30  23746753.344    23746762.0514   23746762.023    23746763.492       -1456.875       -1135.2274      -1135.227       -1087.926   124790057.184 6  97239015.44445  97239014.464 6  93187389.143 7        38.700          32.9004         40.300          45.100
J01  36646164.836    36646165.410    36646169.980    36646175.977         394.844         394.844         307.672         294.852   192576918.836 6 192576932.858 7 150059959.907 6 143807464.119 7        39.400          42.800          40.600          45.500
J02  36474078.711    36474078.879    36474083.383    36474087.633         341.465         341.465         266.078         254.988   191672579.390 8 191672574.391 8 149355359.523 8 143132139.089 8        48.900          51.100          50.000          52.600
J03  39153700.922    39153701.285    39153705.270    39153710.117        -125.277        -125.277         -97.621         -93.551   205754095.533 7 205754097.530 8 160327892.575 8 153647565.336 8        46.900          51.200          50.600          53.200
J07  36824785.859    36824785.715    36824789.637    36824794.930           1.172           1.172            .914            .875   193515575.202 6 193515566.219 7 150791372.003 8 144508408.472 8        40.500          43.900          48.300          51.900
R05  22111180.773    22111180.125    22111185.555    22111185.055        -363.391        -363.391        -282.637        -282.637   118196965.602 7 118196942.598 7  91930968.766 6  91930989.745 6        47.000          46.000          41.600          40.800
R06  21641082.336    21641081.359                                        3079.547        3079.547                                   115480992.467 6 115481196.478 6                                        37.400          36.400
R10  21295059.555    21295058.266                                       -3578.285       -3578.285                                   113514649.327 7 113514644.322 7                                        46.600          45.600
R20  22355427.102    22355427.180    22355434.191    22355433.195       -1773.910       -1773.910       -1379.707       -1379.707   119544491.302 5 119544640.275 5  92979063.442 6  92979059.442 6        32.400          31.400          40.100          39.900
R21  21024549.945    21024549.094    21024553.043    21024553.426         127.254         127.254          98.973          98.973   112506648.009 8 112506634.003 8  87505173.852 7  87505206.870 7        50.200          48.800          45.800          45.100
> 2021 07 29 00 22 30.0000000  0 25
E01  25297762.648    25297768.285       -2513.746       -1877.148   132940650.762 7  99273890.660 8        47.200          48.800
E12  23712793.008    23712796.000         833.352         622.309   124611580.971 7  93054124.112 7        43.100          44.800
E19  27519591.578    27519599.316        2248.539        1679.105   144616308.375 5 107992778.865 5        32.500          35.200
E26  26161342.148    26161350.340       -1805.672       -1348.391   137478752.006 6 102662720.007 7        40.900          42.700
E31  23912964.453    23912970.496          21.062          15.727   125663479.701 8  93839637.001 8        50.600          51.800
E33  24242878.117    24242882.480        -817.465        -610.445   127397177.332 8  95134264.948 8        48.500          51.000
G01  20395242.758    20395250.7424   20395250.270    20395250.504       -1307.137       -1018.5474      -1018.547        -976.109   107177742.849 8  83515150.47248  83515144.490 8  80035347.893 9        48.600          52.5004         48.800          54.100
G03  20795737.078    20795744.1414   20795744.203    20795746.227        1696.691        1322.0984       1322.098        1267.008   109282339.912 8  85155134.29748  85155127.284 8  81607006.700 8        49.600          52.9004         48.900          53.800
G07  23673117.961    23673122.9774   23673123.254                       -2390.848       -1863.0004      -1863.000                   124403096.730 6  96937458.60445  96937532.598 5                        38.200          31.6004         35.000
G08  22555583.438    22555591.7854   22555592.051    22555592.180       -1490.648       -1161.5434      -1161.543       -1113.148   118530335.636 7  92361345.98844  92361346.014 7  88512956.771 8        43.700          29.1004         43.900          48.600
G14  22043513.266    22043518.1374   22043517.980    22043523.277        2489.020        1939.4964       1939.496        1858.684   115839501.404 7  90264522.39645  90264534.400 7  86503517.439 8        46.000          34.7004         46.200          50.500
G17  23852634.852    23852640.0044   23852638.879                        2045.398        1593.8164       1593.816                   125346431.962 6  97672582.85244  97672582.854 5                        38.300          29.7004         33.600
G21  22282877.586    22282881.6024                                      -2093.023       -1630.9264                                  117097287.642 7  91244644.42145                                        45.400          33.9004
G22  20761472.383    20761474.9144                                       -271.863        -211.8444                                  109102288.943 8  85014804.94047                                        48.700          42.1004
G27  25116521.625    25116531.7774   25116531.133    25116533.215       -2238.406       -1744.2154      -1744.215       -1671.539   131988137.526 5 102847922.44442 102847920.503 5  98562589.383 6        33.200          16.9004         35.200          40.500
G30  23755097.938    23755105.2974   23755105.254    23755107.195       -1466.281       -1142.5594      -1142.559       -1094.953   124833902.203 6  97273180.37745  97273179.330 6  93220130.513 7        39.500          33.5004         39.100          45.400
J01  36643915.430    36643915.332    36643919.184    36643925.137         393.582         393.582         306.688         293.906   192565092.443 6 192565106.403 7 150050744.526 6 143798632.714 7        39.200          42.700          39.900          46.000
J02  36472138.422    36472138.496    36472143.344    36472147.473         338.387         338.387         263.676         252.691   191662383.087 8 191662378.079 8 149347414.348 8 143124524.967 8        48.000          51.000          49.600          52.500
J03  39154407.844    39154407.926    39154411.961    39154416.777        -122.219        -122.219         -95.238         -91.270   205757809.178 8 205757811.181 8 160330786.323 8 153650338.517 8        48.200          51.200          50.300          53.000
J07  36824781.000    36824779.934    36824783.707    36824788.973           1.043           1.043            .812            .777   193515543.752 6 193515534.772 7 150791347.490 8 144508384.977 8        40.700          44.100          48.000          52.500
R05  22113288.281    22113287.449    22113292.426    22113292.406        -387.797        -387.797        -301.621        -301.621   118208231.737 7 118208208.747 7  91939731.329 7  91939752.316 6        46.800          45.300          42.000          41.800
R06  21623803.539    21623802.266                                        3067.629        3067.629                                   115388787.335 6 115388991.323 5                                        37.500          35.900
R10  21315232.063    21315230.941                                       -3590.160       -3590.160                                   113622176.287 7 113622171.296 7                                        47.200          46.200
R20  22365373.883    22365373.406    22365380.332    22365379.457       -1771.855       -1771.855       -1378.109       -1378.109   119597675.875 5 119597824.841 5  93020429.165 6  93020425.182 6        34.300          32.500          41.300          40.900
R21  21023842.727    21023841.145    21023845.816    21023846.277         125.145         125.145          97.332          97.332   112502863.934 8 112502849.935 8  87502230.692 7  87502263.696 7        49.600          48.700          45.800          45.300
> 2021 07 29 00 23 00.0000000  0 25
E01  25312134.344    25312140.406       -2521.266       -1882.762   133016176.288 7  99330289.562 8        47.300          49.300
E12  23708048.578    23708051.195         829.023         619.074   124586647.891 7  93035505.261 7        42.600          44.600
E19  27506742.813    27506750.625        2252.898        1682.359   144548785.470 5 107942355.999 5        34.400          34.600
E26  26171644.281    26171651.840       -1803.199       -1346.543   137532887.271 7 102703145.688 7        42.100          42.300
E31  23912883.773    23912890.191           7.129           5.324   125663056.181 8  93839320.726 8        50.600          52.200
E33  24247549.063    24247553.203        -818.941        -611.547   127421723.975 8  95152595.234 8        48.200          51.300
G01  20402730.523    20402738.9064   20402738.402    20402738.527       -1316.055       -1025.4964      -1025.496        -982.770   107217092.895 8  83545812.83048  83545806.832 8  80064732.639 8        48.100          52.3004         49.200          53.800
G03  20786100.641    20786108.0594   20786108.613    20786110.105        1679.027        1308.3324       1308.332        1253.820   109231702.009 8  85115676.20448  85115669.192 8  81569192.712 8        48.700          52.8004         48.800          53.800
G07  23686769.797    23686775.2544   23686775.066                       -2391.723       -1863.6804      -1863.680                   124474835.764 6  96993359.09345  96993433.091 5                        38.000          32.6004         35.500
G08  22564110.773    22564118.8324   22564119.199    22564119.520       -1496.672       -1166.2384      -1166.238       -1117.645   118575145.985 7  92396263.11444  92396263.139 7  88546419.007 8        43.800          29.8004         43.800          49.100
G14  22029339.281    22029344.3914   22029343.852    22029349.500        2476.641        1929.8524       1929.852        1849.438   115765016.178 7  90206481.98945  90206493.994 7  86447895.373 8        46.300          34.2004         44.900          50.900
G17  23840950.781    23840956.6884   23840955.836                        2047.762        1595.6604       1595.660                   125285034.914 6  97624740.99545  97624741.039 6                        36.000          31.9004         36.300
G21  22294826.258    22294830.6294                                      -2093.199       -1631.0624                                  117160080.879 7  91293574.20245                                        45.600          34.0004
G22  20763078.008    20763081.1644                                       -290.777        -226.5784                                  109110729.511 8  85021382.01146                                        48.500          41.6004
G27  25129310.750    25129321.1254   25129320.988    25129322.559       -2241.789       -1746.8484      -1746.848       -1674.062   132055346.121 5 102900292.71842 102900290.760 5  98612777.537 6        33.600          17.4004         35.500          39.900
G30  23763493.266    23763501.5314   23763501.563    23763503.035       -1475.211       -1149.5164      -1149.516       -1101.617   124878025.705 6  97307562.31345  97307561.307 6  93253079.863 7        37.700          31.6004         37.700          46.000
J01  36641669.711    36641669.715    36641674.285    36641679.602         392.789         392.789         306.070         293.316   192553294.778 6 192553308.761 7 150041551.551 6 143789822.807 7        38.300          42.500          39.900          45.400
J02  36470214.898    36470214.965    36470219.668    36470224.063         335.523         335.523         261.445         250.551   191652274.774 7 191652269.779 8 149339537.731 8 143116976.536 8        47.900          50.900          49.400          52.600
J03  39155096.875    39155096.848    39155100.730    39155105.539        -119.066        -119.066         -92.781         -88.914   205761429.185 8 205761431.176 8 160333607.087 8 153653041.741 8        48.500          51.200          50.500          53.200
J07  36824774.195    36824773.977    36824777.781    36824782.824           1.188           1.188            .926            .887   193515512.481 6 193515503.495 7 150791323.127 8 144508361.626 8        40.200          44.200          48.300          52.400
R05  22115530.172    22115530.336    22115536.438    22115535.816        -411.828        -411.828        -320.312        -320.312   118220223.474 7 118220200.480 7  91949058.203 6  91949079.209 6        46.300          45.900          41.300          40.900
R06  21606589.508    21606588.660                                        3055.926        3055.926                                   115296934.471 6 115297138.488 6                                        38.100          36.200
R10  21335469.500    21335467.719                                       -3601.598       -3601.598                                   113730051.365 7 113730046.353 7                                        47.600          46.000
R20  22375307.398    22375307.359    22375314.480    22375313.172       -1769.457       -1769.457       -1376.246       -1376.246   119650795.272 5 119650944.298 5  93061744.229 6  93061740.218 6        34.200          32.200          41.300          41.200
R21  21023146.594    21023145.801    21023149.645    21023150.484         123.309         123.309          95.906          95.906   112499138.600 8 112499124.608 8  87499333.232 7  87499366.235 7        49.700          48.100          47.500          45.700
> 2021 07 29 00 23 30.0000000  0 25
E01  25326549.992    25326556.273       -2528.797       -1888.387   133091930.332 7  99386859.120 8        47.200          48.600
E12  23703328.758    23703330.930         824.777         615.906   124561844.654 7  93016983.405 7        43.600          44.200
E19  27493869.852    27493876.668        2257.316        1685.660   144481136.752 5 107891839.099 5        35.000          34.100
E26  26181932.133    26181940.188       -1800.734       -1344.703   137586951.185 7 102743518.046 7        42.800          42.700
E31  23912883.664    23912889.957          -6.793          -5.074   125663054.989 8  93839319.837 8        50.900          51.900
E33  24252229.305    24252233.219        -820.398        -612.633   127446318.038 8  95170960.929 8        48.000          50.700
G01  20410269.859    20410277.7664   20410277.184    20410277.707       -1324.801       -1032.3124      -1032.312        -989.301   107256710.891 8  83576683.98448  83576677.994 8  80094317.502 9        48.400          52.3004         48.500          54.000
G03  20776566.414    20776574.1174   20776574.242    20776576.031        1661.336        1294.5474       1294.547        1240.609   109181600.233 8  85076635.86748  85076628.884 8  81531779.053 9        49.100          52.9004         49.200          54.000
G07  23700425.875    23700432.0514   23700432.125                       -2392.602       -1864.3634      -1864.363                   124546600.369 6  97049279.49445  97049353.489 6                        36.400          32.3004         37.500
G08  22572672.594    22572681.3284   22572681.504    22572681.902       -1502.629       -1170.8794      -1170.879       -1122.094   118620139.394 7  92431322.87544  92431322.884 7  88580017.945 8        43.900          28.9004         44.000          48.700
G14  22015236.359    22015242.2504   22015241.520    22015246.910        2464.012        1920.0084       1920.008        1840.008   115690908.521 7  90148735.78345  90148747.761 7  86392555.243 8        44.900          34.1004         45.800          51.300
G17  23829253.633    23829259.2814   23829258.586                        2050.070        1597.4574       1597.457                   125223566.412 5  97576843.56244  97576843.565 5                        34.800          27.5004         33.500
G21  22306776.680    22306781.1094                                      -2093.043       -1630.9454                                  117222878.837 7  91342507.65545                                        44.900          33.6004
G22  20764793.133    20764796.1524                                       -309.852        -241.4414                                  109119742.914 8  85028405.44847                                        48.000          42.1004
G27  25142121.344    25142131.9144   25142132.031    25142132.852       -2245.613       -1749.8284      -1749.828       -1676.918   132122666.060 5 102952749.72942 102952747.754 5  98663048.829 6        33.500          15.6004         35.000          38.500
G30  23771942.016    23771949.9884   23771950.941    23771951.961       -1484.379       -1156.6564      -1156.656       -1108.465   124922425.535 6  97342159.55045  97342158.566 6  93286235.528 7        38.300          31.9004         38.300          44.600
J01  36639430.961    36639430.617    36639435.066    36639440.281         391.867         391.867         305.352         292.629   192541526.564 6 192541540.578 7 150032381.544 6 143781034.884 7        39.700          43.200          39.500          45.400
J02  36468308.234    36468308.340    36468312.930    36468317.180         332.660         332.660         259.215         248.414   191642254.854 8 191642249.851 8 149331729.991 8 143109494.118 8        48.300          51.000          49.700          52.400
J03  39155768.070    39155767.883    39155771.895    39155776.816        -115.805        -115.805         -90.234         -86.477   205764955.782 7 205764957.789 8 160336355.114 8 153655675.274 8        47.300          51.300          51.000          53.200
J07  36824768.492    36824768.281    36824772.234    36824777.066           1.242           1.242            .969            .930   193515481.761 6 193515472.785 7 150791299.197 7 144508338.689 8        40.100          44.100          47.800          52.300
R05  22117910.250    22117909.559    22117915.609    22117914.863        -435.883        -435.883        -339.020        -339.020   118232941.539 7 118232918.540 7  91958950.061 6  91958971.065 6        46.400          45.100          41.700          41.300
R06  21589443.664    21589443.430                                        3044.004        3044.004                                   115205438.965 6 115205642.947 6                                        37.900          36.800
R10  21355770.156    21355768.941                                       -3612.852       -3612.852                                   113838270.293 7 113838265.309 7                                        46.900          46.400
R20  22385230.031    22385228.473    22385235.051    22385234.863       -1767.164       -1767.164       -1374.461       -1374.461   119703850.142 5 119703999.123 5  93103009.081 6  93103005.094 6        33.500          32.600          40.400          39.800
R21  21022461.266    21022460.480    21022465.113    21022465.227         121.418         121.418          94.438          94.438   112495471.661 8 112495457.670 8  87496481.158 7  87496514.170 7        49.900          48.200          47.300          45.900
> 2021 07 29 00 24 00.0000000  0 25
E01  25341008.547    25341014.746       -2536.629       -1894.234   133167910.446 7  99443597.490 8        46.700          49.000
E12  23698633.344    23698635.387         820.188         612.477   124537169.579 7  92998557.221 7        43.300          44.400
E19  27480971.766    27480979.922        2260.855        1688.301   144413363.000 5 107841228.881 5        33.500          34.300
E26  26192206.023    26192214.188       -1798.617       -1343.121   137640942.643 6 102783836.273 7        41.200          42.800
E31  23912963.719    23912969.941         -21.195         -15.828   125663475.508 8  93839633.847 8        50.300          51.400
E33  24256917.945    24256922.375        -822.199        -613.980   127470957.747 7  95189360.706 8        47.700          51.000
G01  20417859.375    20417867.0704   20417866.746    20417867.117       -1333.969       -1039.4534      -1039.453        -996.145   107296594.026 8  83607761.74148  83607755.744 8  80124100.353 9        48.300          52.3004         48.200          54.100
G03  20767134.648    20767142.4384   20767142.496    20767144.203        1643.039        1280.2894       1280.289        1226.945   109132035.559 8  85038014.05848  85038007.046 8  81494766.486 9        48.700          53.0004         49.100          54.100
G07  23714085.531    23714092.6644   23714092.309                       -2393.156       -1864.7974      -1864.797                   124618386.938 6  97105217.02045  97105291.059 6                        36.300          30.5004         36.700
G08  22581269.375    22581277.8054   22581277.742    22581278.465       -1509.105       -1175.9264      -1175.926       -1126.930   118665315.541 7  92466525.05944  92466525.075 7  88613753.358 8        42.900          29.5004         42.800          49.100
G14  22001206.781    22001211.7704   22001211.328    22001216.410        2451.070        1909.9264       1909.926        1830.348   115617180.014 7  90091285.01245  90091297.001 7  86337498.272 8        45.400          33.8004         44.900          50.000
G17  23817542.328    23817548.5944   23817548.598                        2052.348        1599.2304       1599.230                                                                                          32.900          27.6004         36.300
G21  22318727.055    22318731.2894                                      -2093.559       -1631.3444                                  117285679.279 7  91391443.02745                                        44.900          34.2004
G22  20766617.156    20766619.8164                                       -329.156        -256.4884                                  109129327.037 8  85035873.60246                                        48.800          41.4004
G27  25154954.766    25154963.2974   25154963.609    25154965.785       -2249.855       -1753.1334      -1753.133       -1680.086   132190096.789 5 103005293.12442 103005291.118 5  98713402.837 6        34.400          16.3004         35.500          39.000
G30  23780443.641    23780451.7274   23780451.492    23780452.363       -1493.703       -1163.9264      -1163.926       -1115.430   124967098.263 6  97376969.44645  97376968.441 6  93319595.015 7        38.500          32.0004         39.100          44.800
J01  36637197.000    36637196.996    36637201.531    36637206.508         390.633         390.633         304.391         291.707   192529787.370 6 192529801.365 7 150023234.103 6 143772268.603 7        39.600          43.000          41.400          44.800
J02  36466418.266    36466418.258    36466423.000    36466427.125         329.480         329.480         256.738         246.039   191632322.535 8 191632317.526 8 149323990.519 8 143102077.123 8        48.100          50.800          50.100          52.800
J03  39156420.906    39156421.176    39156424.875    39156429.863        -113.000        -113.000         -88.051         -84.383   205768388.172 7 205768390.181 8 160339029.720 8 153658238.425 8        47.000          51.200          50.200          52.800
J07  36824762.813    36824762.160    36824766.332    36824771.152            .855            .855            .668            .641   193515450.756 7 193515441.764 7 150791275.029 8 144508315.524 8        42.100          44.200          48.100          52.000
R05  22120426.219    22120424.414    22120430.227    22120429.730        -460.340        -460.340        -358.039        -358.039   118246385.405 7 118246362.409 7  91969406.430 6  91969427.413 6        46.400          45.800          41.600          41.200
R06  21572365.898    21572363.938                                        3031.699        3031.699                                   115114303.855 6 115114507.872 6                                        37.700          36.600
R10  21376136.336    21376134.691                                       -3624.348       -3624.348                                   113946828.486 7 113946823.502 7                                        47.300          46.100
R20  22395139.477    22395137.848    22395144.598    22395144.328       -1765.242       -1765.242       -1372.965       -1372.965   119756839.366 5 119756988.394 5  93144222.929 6  93144218.909 6        34.300          32.300          41.600          40.900
R21  21021786.734    21021785.719    21021790.430    21021790.547         119.328         119.328          92.812          92.812   112491861.225 8 112491847.226 8  87493673.051 7  87493706.047 7        49.300          48.400          47.300          45.800
> 2021 07 29 00 24 30.0000000  0 25
E01  25355509.695    25355515.719       -2543.859       -1899.637   133244113.969 7  99500502.698 8        47.100          48.300
E12  23693961.758    23693964.445         816.188         609.492   124512620.876 7  92980225.423 7        43.200          45.100
E19  27468052.242    27468058.984        2265.250        1691.582   144345464.977 5 107790525.865 5        32.000          34.700
E26  26202466.203    26202474.156       -1796.039       -1341.195   137694860.319 6 102824099.427 7        40.900          42.300
E31  23913123.766    23913129.973         -35.035         -26.164   125664316.918 8  93840262.179 8        50.500          52.000
E33  24261615.008    24261619.402        -823.449        -614.914   127495641.210 8  95207793.164 8        48.200          51.200
G01  20425498.836    20425506.5554   20425506.066    20425506.488       -1342.551       -1046.1454      -1046.145       -1002.555   107336739.240 8  83639043.73048  83639037.733 8  80154078.925 8        48.100          52.1004         48.900          53.800
G03  20757805.250    20757812.8754   20757813.082    20757814.863        1625.238        1266.4184       1266.418        1213.652   109083008.971 8  84999811.52947  84999804.525 8  81458155.730 9        49.000          47.0004         49.200          54.100
G07  23727751.391    23727756.0784   23727756.172                       -2393.910       -1865.3834      -1865.383                   124690191.766 6  97161168.78245  97161242.791 5                        37.300          31.0004         35.200
G08  22589900.977    22589909.4964   22589909.648    22589910.059       -1514.992       -1180.5164      -1180.516       -1131.324   118710674.384 7  92501869.60544  92501869.618 7  88647625.216 8        43.300          29.4004         44.100          49.100
G14  21987249.391    21987253.8674   21987253.785    21987259.141        2438.512        1900.1414       1900.141        1820.969   115543832.346 7  90034130.98245  90034142.970 7  86282725.667 8        45.700          34.4004         45.700          50.400
G17  23805818.227    23805823.9064   23805823.852                        2054.938        1601.2504       1601.250                   125100412.367 5  97480879.37844  97480879.402 5                        33.300          26.8004         34.300
G21  22330677.984    22330681.9454                                      -2093.430       -1631.2464                                  117348480.335 7  91440378.90645                                        45.500          34.3004
G22  20768548.898    20768552.2734                                       -347.945        -271.1294                                  109139480.678 8  85043785.54646                                        48.600          41.5004
G27  25167805.070    25167815.7034   25167815.836    25167817.359       -2253.043       -1755.6214      -1755.621       -1682.469   132257637.597 4 103057922.33142 103057920.233 5  98763839.038 6        29.900          14.8004         34.800          38.300
G30  23788996.188    23789003.4924   23789003.961    23789006.094       -1502.566       -1170.8324      -1170.832       -1122.047   125012040.145 6  97411989.06745  97411988.080 6  93353155.489 7        38.400          32.8004         38.900          46.100
J01  36634968.094    36634968.336    36634973.188    36634977.559         389.914         389.914         303.828         291.168   192518076.530 6 192518090.533 7 150014108.821 6 143763523.516 7        38.800          42.800          40.900          44.800
J02  36464544.758    36464544.875    36464549.219    36464553.668         326.691         326.691         254.566         243.957   191622476.897 7 191622471.893 8 149316318.586 8 143094724.853 8        47.800          50.900          49.600          52.700
J03  39157056.070    39157056.172    39157059.926    39157064.945        -109.598        -109.598         -85.402         -81.844   205771725.317 7 205771727.333 8 160341630.079 8 153660730.446 8        46.800          51.200          50.800          53.000
J07  36824756.492    36824755.980    36824760.090    36824765.078           1.164           1.164            .906            .871   193515418.465 6 193515409.454 7 150791249.859 8 144508291.406 8        40.700          44.100          48.300          52.100
R05  22123075.758    22123075.383    22123081.656    22123081.059        -484.430        -484.430        -376.781        -376.781   118260554.315 7 118260531.313 7  91980426.695 7  91980447.688 6        46.400          45.100          42.200          41.400
R06  21555356.156    21555353.652                                        3019.402        3019.402                                   115023533.216 6 115023737.212 6                                        38.600          36.400
R10  21396565.063    21396562.656                                       -3635.262       -3635.262                                   114055720.163 7 114055715.156 7                                        47.300          46.100
R20  22405034.547    22405035.293    22405042.281    22405041.316       -1763.238       -1763.238       -1371.410       -1371.410   119809762.488 5 119809911.528 5  93185385.297 6  93185381.293 6        33.100          31.000          41.900          41.800
R21  21021121.852    21021120.859    21021125.137    21021125.641         117.609         117.609          91.473          91.473   112488305.222 8 112488291.232 7  87490907.242 7  87490940.252 7        48.700          47.700          46.000          45.900
> 2021 07 29 00 25 00.0000000  0 25
E01  25370053.188    25370059.090       -2551.375       -1905.246   133320540.378 7  99557574.342 8        47.000          48.900
E12  23689314.461    23689317.047         811.844         606.246   124488198.863 7  92961988.186 7        43.300          45.100
E19  27455108.773    27455114.988        2269.223        1694.547   144277445.551 5 107739732.240 5        32.600          35.100
E26  26212712.828    26212720.746       -1793.871       -1339.578   137748705.209 6 102864308.246 7        40.000          42.900
E31  23913364.148    23913370.219         -49.309         -36.820   125665580.455 8  93841205.723 8        50.300          51.300
E33  24266320.602    24266324.758        -825.160        -616.191   127520368.613 8  95226258.439 8        48.300          51.000
G01  20433187.602    20433196.0394   20433195.414    20433195.711       -1351.301       -1052.9614      -1052.961       -1009.090   107377145.689 8  83670529.27548  83670523.285 8  80184252.582 8        48.500          52.1004         48.800          53.800
G03  20748578.992    20748586.2854   20748586.723    20748588.473        1607.047        1252.2464       1252.246        1200.070   109034523.477 8  84962030.64147  84962023.629 8  81421949.048 9        49.400          47.3004         49.300          54.100
G07  23741418.211    23741423.8244   23741423.066                       -2394.508       -1865.8524      -1865.852                   124762012.899 5  97217133.24445  97217207.230 6                        35.800          30.7004         36.500
G08  22598567.227    22598575.8794   22598576.254    22598576.824       -1521.266       -1185.4024      -1185.402       -1136.012   118756217.268 7  92537357.54045  92537357.543 7  88681634.466 8        43.600          30.0004         44.000          49.000
G14  21973364.453    21973369.5704   21973369.660    21973374.512        2425.559        1890.0474       1890.047        1811.293   115470869.237 7  89977276.59745  89977288.600 7  86228240.244 8        44.700          34.4004         45.700          50.300
G17  23794080.250    23794085.3484   23794084.992                        2057.211        1603.0204       1603.020                   125038726.779 6  97432812.69845  97432812.668 5                        37.900          30.4004         33.100
G21  22342628.477    22342633.3054                                      -2093.441       -1631.2504                                  117411281.632 7  91489314.95345                                        45.500          33.8004
G22  20770590.141    20770592.7664                                       -367.105        -286.0594                                  109150204.388 8  85052141.69347                                        48.500          42.3004
G27  25180679.445    25180690.1524   25180689.398    25180691.215       -2257.133       -1758.8054      -1758.805       -1685.520   132325289.697 4 103110638.08942 103110636.053 5  98814358.362 6        29.100          14.8004         34.500          38.400
G30  23797598.758    23797607.5514   23797606.898    23797608.156       -1511.648       -1177.9064      -1177.906       -1128.828   125057249.690 6  97447217.25445  97447216.233 6  93386915.822 7        38.600          33.1004         39.200          45.700
J01  36632745.508    36632745.680    36632750.066    36632754.699         388.723         388.723         302.902         290.281   192506395.692 6 192506409.702 7 150005006.861 6 143754800.815 7        38.900          42.700          40.700          45.100
J02  36462687.594    36462687.637    36462692.695    36462696.918         323.684         323.684         252.223         241.711   191612719.156 7 191612714.150 8 149308715.158 8 143087438.223 8        47.300          50.800          50.300          53.000
J03  39157673.008    39157673.246    39157677.102    39157682.090        -106.707        -106.707         -83.148         -79.684   205774968.356 7 205774970.359 8 160344157.116 8 153663152.180 8        47.000          51.300          50.000          53.800
J07  36824749.945    36824749.660    36824753.809    36824758.750           1.000           1.000            .777            .746   193515386.121 6 193515377.126 7 150791224.660 8 144508267.268 8        39.700          43.900          48.100          52.200
R05  22125862.570    22125861.730    22125868.020    22125867.398        -508.789        -508.789        -395.723        -395.723   118275449.590 7 118275426.588 7  91992011.899 7  91992032.910 7        47.000          45.000          42.200          42.300
R06  21538414.719    21538412.527                                        3007.047        3007.047                                   114933132.467 6 114933336.439 6                                        37.400          36.400
R10  21417053.141    21417051.527                                       -3646.320       -3646.320                                   114164941.546 7 114164936.547 7                                        46.500          45.700
R20  22414919.789    22414919.453    22414926.039    22414925.891       -1760.914       -1760.914       -1369.598       -1369.598   119862620.347 5 119862769.363 5  93226496.936 6  93226492.913 6        32.900          31.400          40.700          41.600
R21  21020467.734    21020466.699    21020470.098    21020471.348         115.723         115.723          90.008          90.008   112484803.867 8 112484789.876 8  87488183.978 7  87488216.974 7        49.200          48.100          46.300          45.000
